city,state,key,lat,lng
New York,New York,New YorkNew York,40.6943,-73.9249
Los Angeles,California,Los AngelesCalifornia,34.1139,-118.4068
Chicago,Illinois,ChicagoIllinois,41.8373,-87.6862
Miami,Florida,MiamiFlorida,25.7839,-80.2102
Dallas,Texas,DallasTexas,32.7936,-96.7662
Philadelphia,Pennsylvania,PhiladelphiaPennsylvania,40.0077,-75.1339
Houston,Texas,HoustonTexas,29.7869,-95.3905
Washington,District of Columbia,WashingtonDistrict of Columbia,38.9047,-77.0163
Atlanta,Georgia,AtlantaGeorgia,33.7627,-84.4225
Boston,Massachusetts,BostonMassachusetts,42.3188,-71.0846
Phoenix,Arizona,PhoenixArizona,33.5722,-112.0891
Seattle,Washington,SeattleWashington,47.6211,-122.3244
San Francisco,California,San FranciscoCalifornia,37.7562,-122.443
Detroit,Michigan,DetroitMichigan,42.3834,-83.1024
San Diego,California,San DiegoCalifornia,32.8312,-117.1225
Minneapolis,Minnesota,MinneapolisMinnesota,44.9635,-93.2678
Tampa,Florida,TampaFlorida,27.9942,-82.4451
Denver,Colorado,DenverColorado,39.7621,-104.8759
Brooklyn,New York,BrooklynNew York,40.6501,-73.9496
Queens,New York,QueensNew York,40.7498,-73.7976
Baltimore,Maryland,BaltimoreMaryland,39.3051,-76.6144
Riverside,California,RiversideCalifornia,33.9381,-117.3948
St. Louis,Missouri,St. LouisMissouri,38.6358,-90.2451
Las Vegas,Nevada,Las VegasNevada,36.2333,-115.2654
Portland,Oregon,PortlandOregon,45.5371,-122.65
San Antonio,Texas,San AntonioTexas,29.4658,-98.5254
Sacramento,California,SacramentoCalifornia,38.5667,-121.4683
San Jose,California,San JoseCalifornia,37.3021,-121.8489
Orlando,Florida,OrlandoFlorida,28.4772,-81.3369
Cleveland,Ohio,ClevelandOhio,41.4767,-81.6805
Pittsburgh,Pennsylvania,PittsburghPennsylvania,40.4396,-79.9763
Cincinnati,Ohio,CincinnatiOhio,39.1412,-84.506
Manhattan,New York,ManhattanNew York,40.7834,-73.9662
Austin,Texas,AustinTexas,30.3006,-97.7517
Kansas City,Missouri,Kansas CityMissouri,39.1239,-94.5541
Indianapolis,Indiana,IndianapolisIndiana,39.7771,-86.1458
Columbus,Ohio,ColumbusOhio,39.986,-82.9851
Virginia Beach,Virginia,Virginia BeachVirginia,36.7335,-76.0435
Charlotte,North Carolina,CharlotteNorth Carolina,35.2079,-80.8304
Bronx,New York,BronxNew York,40.8501,-73.8662
Milwaukee,Wisconsin,MilwaukeeWisconsin,43.0642,-87.9673
Providence,Rhode Island,ProvidenceRhode Island,41.823,-71.4187
Jacksonville,Florida,JacksonvilleFlorida,30.3322,-81.6749
Salt Lake City,Utah,Salt Lake CityUtah,40.7774,-111.93
Nashville,Tennessee,NashvilleTennessee,36.1715,-86.7843
Memphis,Tennessee,MemphisTennessee,35.1046,-89.9773
Richmond,Virginia,RichmondVirginia,37.5295,-77.4756
New Orleans,Louisiana,New OrleansLouisiana,30.0687,-89.9288
Raleigh,North Carolina,RaleighNorth Carolina,35.8324,-78.6438
Louisville,Kentucky,LouisvilleKentucky,38.1663,-85.6485
Oklahoma City,Oklahoma,Oklahoma CityOklahoma,35.4676,-97.5137
Bridgeport,Connecticut,BridgeportConnecticut,41.1918,-73.1953
Buffalo,New York,BuffaloNew York,42.9017,-78.8487
Hartford,Connecticut,HartfordConnecticut,41.7661,-72.6834
Fort Worth,Texas,Fort WorthTexas,32.7812,-97.3472
Tucson,Arizona,TucsonArizona,32.1545,-110.8782
El Paso,Texas,El PasoTexas,31.8479,-106.4309
Honolulu,Hawaii,HonoluluHawaii,21.3294,-157.846
Omaha,Nebraska,OmahaNebraska,41.2628,-96.0498
McAllen,Texas,McAllenTexas,26.2273,-98.2471
Albuquerque,New Mexico,AlbuquerqueNew Mexico,35.1053,-106.6464
Birmingham,Alabama,BirminghamAlabama,33.5277,-86.7987
Dayton,Ohio,DaytonOhio,39.7797,-84.1998
Rochester,New York,RochesterNew York,43.168,-77.6162
Sarasota,Florida,SarasotaFlorida,27.3386,-82.543
Fresno,California,FresnoCalifornia,36.7831,-119.7941
Allentown,Pennsylvania,AllentownPennsylvania,40.5961,-75.4755
Tulsa,Oklahoma,TulsaOklahoma,36.1284,-95.9043
Concord,California,ConcordCalifornia,37.9722,-122.0016
Cape Coral,Florida,Cape CoralFlorida,26.6445,-81.9955
Springfield,Massachusetts,SpringfieldMassachusetts,42.1155,-72.5395
Colorado Springs,Colorado,Colorado SpringsColorado,38.8674,-104.7606
Charleston,South Carolina,CharlestonSouth Carolina,32.8151,-79.963
Grand Rapids,Michigan,Grand RapidsMichigan,42.9615,-85.6557
Mission Viejo,California,Mission ViejoCalifornia,33.6095,-117.655
Albany,New York,AlbanyNew York,42.6664,-73.7987
Knoxville,Tennessee,KnoxvilleTennessee,35.9692,-83.9496
Baton Rouge,Louisiana,Baton RougeLouisiana,30.4419,-91.131
Bakersfield,California,BakersfieldCalifornia,35.353,-119.0359
Ogden,Utah,OgdenUtah,41.228,-111.9677
New Haven,Connecticut,New HavenConnecticut,41.3112,-72.9246
Columbia,South Carolina,ColumbiaSouth Carolina,34.0376,-80.9037
Akron,Ohio,AkronOhio,41.0798,-81.5219
Provo,Utah,ProvoUtah,40.2457,-111.6457
Worcester,Massachusetts,WorcesterMassachusetts,42.2705,-71.8079
Mesa,Arizona,MesaArizona,33.4017,-111.7181
Palm Bay,Florida,Palm BayFlorida,27.955,-80.6628
Toledo,Ohio,ToledoOhio,41.6639,-83.5822
Brookhaven,New York,BrookhavenNew York,40.8321,-72.9518
Murrieta,California,MurrietaCalifornia,33.572,-117.1909
Wichita,Kansas,WichitaKansas,37.6897,-97.3441
Des Moines,Iowa,Des MoinesIowa,41.5725,-93.6105
Staten Island,New York,Staten IslandNew York,40.5834,-74.1496
Long Beach,California,Long BeachCalifornia,33.798,-118.1675
Greenville,South Carolina,GreenvilleSouth Carolina,34.8362,-82.3649
Little Rock,Arkansas,Little RockArkansas,34.7255,-92.358
Harrisburg,Pennsylvania,HarrisburgPennsylvania,40.2752,-76.8843
Denton,Texas,DentonTexas,33.2176,-97.1419
Madison,Wisconsin,MadisonWisconsin,43.0827,-89.3923
Reno,Nevada,RenoNevada,39.5497,-119.8483
Port St. Lucie,Florida,Port St. LucieFlorida,27.2796,-80.3884
Oakland,California,OaklandCalifornia,37.7903,-122.2165
Winston-Salem,North Carolina,Winston-SalemNorth Carolina,36.1029,-80.261
Indio,California,IndioCalifornia,33.7346,-116.2346
Durham,North Carolina,DurhamNorth Carolina,35.9795,-78.9032
Syracuse,New York,SyracuseNew York,43.0409,-76.1438
Chattanooga,Tennessee,ChattanoogaTennessee,35.0657,-85.2487
Lancaster,Pennsylvania,LancasterPennsylvania,40.042,-76.3012
Spokane,Washington,SpokaneWashington,47.6671,-117.433
Palm Coast,Florida,Palm CoastFlorida,29.5392,-81.246
Arlington,Texas,ArlingtonTexas,32.6998,-97.1251
Bonita Springs,Florida,Bonita SpringsFlorida,26.3559,-81.7861
Poughkeepsie,New York,PoughkeepsieNew York,41.6949,-73.921
Stockton,California,StocktonCalifornia,37.9766,-121.3111
Oxnard,California,OxnardCalifornia,34.1962,-119.1819
Augusta,Georgia,AugustaGeorgia,33.3645,-82.0708
Scranton,Pennsylvania,ScrantonPennsylvania,41.4044,-75.6649
Boise,Idaho,BoiseIdaho,43.6007,-116.2312
Modesto,California,ModestoCalifornia,37.6374,-121.0028
Kissimmee,Florida,KissimmeeFlorida,28.3042,-81.4164
Youngstown,Ohio,YoungstownOhio,41.0993,-80.6463
Aurora,Colorado,AuroraColorado,39.7084,-104.7274
Anaheim,California,AnaheimCalifornia,33.839,-117.8573
Lancaster,California,LancasterCalifornia,34.6934,-118.1753
Victorville,California,VictorvilleCalifornia,34.5277,-117.3536
Pensacola,Florida,PensacolaFlorida,30.4427,-87.1886
Fayetteville,Arkansas,FayettevilleArkansas,36.0713,-94.166
Corpus Christi,Texas,Corpus ChristiTexas,27.7261,-97.3755
Jackson,Mississippi,JacksonMississippi,32.3163,-90.2124
Greensboro,North Carolina,GreensboroNorth Carolina,36.0956,-79.8268
Flint,Michigan,FlintMichigan,43.0235,-83.6922
Islip,New York,IslipNew York,40.7384,-73.1887
Santa Ana,California,Santa AnaCalifornia,33.7366,-117.8819
Fort Wayne,Indiana,Fort WayneIndiana,41.0885,-85.1436
Ann Arbor,Michigan,Ann ArborMichigan,42.2755,-83.7312
Fayetteville,North Carolina,FayettevilleNorth Carolina,35.0846,-78.9776
Santa Rosa,California,Santa RosaCalifornia,38.4458,-122.7067
Lansing,Michigan,LansingMichigan,42.7142,-84.5601
Mobile,Alabama,MobileAlabama,30.6782,-88.1163
Lexington,Kentucky,LexingtonKentucky,38.0423,-84.4587
Huntsville,Alabama,HuntsvilleAlabama,34.6988,-86.6412
Santa Clarita,California,Santa ClaritaCalifornia,34.4155,-118.4992
Asheville,North Carolina,AshevilleNorth Carolina,35.5704,-82.5537
St. Paul,Minnesota,St. PaulMinnesota,44.9477,-93.104
Fort Collins,Colorado,Fort CollinsColorado,40.5475,-105.0651
Antioch,California,AntiochCalifornia,37.9789,-121.7957
Henderson,Nevada,HendersonNevada,36.0146,-115.0362
Oyster Bay,New York,Oyster BayNew York,40.7845,-73.5139
Trenton,New Jersey,TrentonNew Jersey,40.2236,-74.7641
Lakeland,Florida,LakelandFlorida,28.0557,-81.9545
Shreveport,Louisiana,ShreveportLouisiana,32.4659,-93.7959
Davenport,Iowa,DavenportIowa,41.5563,-90.6052
Springfield,Missouri,SpringfieldMissouri,37.1943,-93.2915
Plano,Texas,PlanoTexas,33.0502,-96.7487
Rockford,Illinois,RockfordIllinois,42.2598,-89.0641
Newark,New Jersey,NewarkNew Jersey,40.7245,-74.1725
Lincoln,Nebraska,LincolnNebraska,40.8088,-96.6796
Round Lake Beach,Illinois,Round Lake BeachIllinois,42.379,-88.0811
South Bend,Indiana,South BendIndiana,41.6771,-86.2692
Savannah,Georgia,SavannahGeorgia,32.0281,-81.1785
Irvine,California,IrvineCalifornia,33.6772,-117.7738
Canton,Ohio,CantonOhio,40.8076,-81.3678
Jersey City,New Jersey,Jersey CityNew Jersey,40.7161,-74.0683
Chula Vista,California,Chula VistaCalifornia,32.6281,-117.0145
Eugene,Oregon,EugeneOregon,44.0563,-123.1173
Reading,Pennsylvania,ReadingPennsylvania,40.34,-75.9267
Lafayette,Louisiana,LafayetteLouisiana,30.2084,-92.0323
St. Petersburg,Florida,St. PetersburgFlorida,27.793,-82.6652
Lubbock,Texas,LubbockTexas,33.5642,-101.8871
Peoria,Illinois,PeoriaIllinois,40.7521,-89.6155
Myrtle Beach,South Carolina,Myrtle BeachSouth Carolina,33.7096,-78.8842
Laredo,Texas,LaredoTexas,27.5617,-99.4874
Salem,Oregon,SalemOregon,44.9232,-123.0245
Columbus,Georgia,ColumbusGeorgia,32.51,-84.8771
Montgomery,Alabama,MontgomeryAlabama,32.3473,-86.2666
Chandler,Arizona,ChandlerArizona,33.2827,-111.8517
Anchorage,Alaska,AnchorageAlaska,61.1508,-149.1091
Tallahassee,Florida,TallahasseeFlorida,30.4551,-84.2527
Concord,North Carolina,ConcordNorth Carolina,35.3932,-80.6363
Scottsdale,Arizona,ScottsdaleArizona,33.6872,-111.8651
Killeen,Texas,KilleenTexas,31.0755,-97.7297
Glendale,Arizona,GlendaleArizona,33.5797,-112.2258
Wilmington,North Carolina,WilmingtonNorth Carolina,34.2101,-77.886
Winter Haven,Florida,Winter HavenFlorida,28.0118,-81.7017
Norfolk,Virginia,NorfolkVirginia,36.8945,-76.259
North Las Vegas,Nevada,North Las VegasNevada,36.288,-115.0901
Gilbert,Arizona,GilbertArizona,33.3103,-111.7463
Atlantic City,New Jersey,Atlantic CityNew Jersey,39.3797,-74.4527
Barnstable Town,Massachusetts,Barnstable TownMassachusetts,41.6722,-70.3599
Chesapeake,Virginia,ChesapeakeVirginia,36.6778,-76.3024
Irving,Texas,IrvingTexas,32.8584,-96.9702
Hialeah,Florida,HialeahFlorida,25.8696,-80.3046
Garland,Texas,GarlandTexas,32.91,-96.6305
McKinney,Texas,McKinneyTexas,33.2016,-96.6669
Fremont,California,FremontCalifornia,37.5265,-121.9852
Visalia,California,VisaliaCalifornia,36.3276,-119.3269
York,Pennsylvania,YorkPennsylvania,39.9651,-76.7315
Kennewick,Washington,KennewickWashington,46.1979,-119.1732
Evansville,Indiana,EvansvilleIndiana,37.9881,-87.5341
Paradise,Nevada,ParadiseNevada,36.0807,-115.1369
Nashua,New Hampshire,NashuaNew Hampshire,42.7491,-71.491
North Hempstead,New York,North HempsteadNew York,40.7912,-73.6688
Arlington,Virginia,ArlingtonVirginia,38.8786,-77.1011
Brownsville,Texas,BrownsvilleTexas,25.998,-97.4565
Appleton,Wisconsin,AppletonWisconsin,44.2774,-88.3894
Gulfport,Mississippi,GulfportMississippi,30.4271,-89.0703
Thousand Oaks,California,Thousand OaksCalifornia,34.1914,-118.8755
Avondale,Arizona,AvondaleArizona,33.3858,-112.3236
San Bernardino,California,San BernardinoCalifornia,34.1417,-117.2945
Bremerton,Washington,BremertonWashington,47.5436,-122.7121
Roanoke,Virginia,RoanokeVirginia,37.2785,-79.958
Hickory,North Carolina,HickoryNorth Carolina,35.7426,-81.323
Kalamazoo,Michigan,KalamazooMichigan,42.2749,-85.5882
Tacoma,Washington,TacomaWashington,47.2431,-122.4531
Fontana,California,FontanaCalifornia,34.0968,-117.4599
Green Bay,Wisconsin,Green BayWisconsin,44.515,-87.9896
College Station,Texas,College StationTexas,30.5852,-96.296
Moreno Valley,California,Moreno ValleyCalifornia,33.9244,-117.2045
Amarillo,Texas,AmarilloTexas,35.1989,-101.831
Portland,Maine,PortlandMaine,43.6773,-70.2715
Fargo,North Dakota,FargoNorth Dakota,46.8653,-96.8292
Santa Barbara,California,Santa BarbaraCalifornia,34.4285,-119.7202
Huntington,New York,HuntingtonNew York,40.8522,-73.3824
Norwich,Connecticut,NorwichConnecticut,41.5495,-72.0882
Glendale,California,GlendaleCalifornia,34.1818,-118.2468
Yonkers,New York,YonkersNew York,40.9466,-73.8674
Huntington Beach,California,Huntington BeachCalifornia,33.696,-118.0025
Aurora,Illinois,AuroraIllinois,41.7637,-88.2901
Gainesville,Florida,GainesvilleFlorida,29.6804,-82.3458
Olympia,Washington,OlympiaWashington,47.0417,-122.8959
North Port,Florida,North PortFlorida,27.0577,-82.1975
Spring Valley,Nevada,Spring ValleyNevada,36.0987,-115.2619
Huntington,West Virginia,HuntingtonWest Virginia,38.4109,-82.4344
Deltona,Florida,DeltonaFlorida,28.905,-81.2136
Sunrise Manor,Nevada,Sunrise ManorNevada,36.1785,-115.049
Grand Prairie,Texas,Grand PrairieTexas,32.687,-97.0209
Salinas,California,SalinasCalifornia,36.6884,-121.6317
Waterbury,Connecticut,WaterburyConnecticut,41.5583,-73.0361
Overland Park,Kansas,Overland ParkKansas,38.887,-94.687
Waco,Texas,WacoTexas,31.5597,-97.1882
Erie,Pennsylvania,EriePennsylvania,42.1168,-80.0733
Cedar Rapids,Iowa,Cedar RapidsIowa,41.9667,-91.6781
Hagerstown,Maryland,HagerstownMaryland,39.6402,-77.7217
Tempe,Arizona,TempeArizona,33.3881,-111.9318
Spartanburg,South Carolina,SpartanburgSouth Carolina,34.9437,-81.9256
Clarksville,Tennessee,ClarksvilleTennessee,36.5696,-87.3428
Gastonia,North Carolina,GastoniaNorth Carolina,35.2494,-81.1853
Lorain,Ohio,LorainOhio,41.4409,-82.184
Sioux Falls,South Dakota,Sioux FallsSouth Dakota,43.5397,-96.7321
Fort Lauderdale,Florida,Fort LauderdaleFlorida,26.1412,-80.1464
Newport News,Virginia,Newport NewsVirginia,37.1051,-76.5185
High Point,North Carolina,High PointNorth Carolina,35.9905,-79.9937
Santa Cruz,California,Santa CruzCalifornia,36.9789,-122.0346
Rancho Cucamonga,California,Rancho CucamongaCalifornia,34.1248,-117.5666
Frisco,Texas,FriscoTexas,33.1554,-96.8217
Danbury,Connecticut,DanburyConnecticut,41.4016,-73.471
Hemet,California,HemetCalifornia,33.7341,-116.9969
Oceanside,California,OceansideCalifornia,33.2247,-117.3083
Ontario,California,OntarioCalifornia,34.0393,-117.6064
Vancouver,Washington,VancouverWashington,45.6367,-122.597
Garden Grove,California,Garden GroveCalifornia,33.7787,-117.9601
Nampa,Idaho,NampaIdaho,43.5843,-116.5628
Vallejo,California,VallejoCalifornia,38.1133,-122.2359
Elk Grove,California,Elk GroveCalifornia,38.416,-121.384
Pembroke Pines,Florida,Pembroke PinesFlorida,26.0128,-80.3382
Medford,Oregon,MedfordOregon,42.3372,-122.8537
Peoria,Arizona,PeoriaArizona,33.7844,-112.299
Corona,California,CoronaCalifornia,33.862,-117.5641
Murfreesboro,Tennessee,MurfreesboroTennessee,35.8493,-86.4117
Marysville,Washington,MarysvilleWashington,48.081,-122.1558
Cary,North Carolina,CaryNorth Carolina,35.7817,-78.8175
Fredericksburg,Virginia,FredericksburgVirginia,38.2992,-77.4872
Ocala,Florida,OcalaFlorida,29.178,-82.1511
Manchester,New Hampshire,ManchesterNew Hampshire,42.9848,-71.4447
Hayward,California,HaywardCalifornia,37.6328,-122.0772
Muskegon,Michigan,MuskegonMichigan,43.2281,-86.2562
Alexandria,Virginia,AlexandriaVirginia,38.8185,-77.0861
Springfield,Illinois,SpringfieldIllinois,39.771,-89.6537
Lafayette,Indiana,LafayetteIndiana,40.399,-86.8593
Port Arthur,Texas,Port ArthurTexas,29.8554,-93.9264
Palmdale,California,PalmdaleCalifornia,34.5944,-118.1057
Champaign,Illinois,ChampaignIllinois,40.1144,-88.2735
Gainesville,Georgia,GainesvilleGeorgia,34.2902,-83.8303
Enterprise,Nevada,EnterpriseNevada,36.0163,-115.2207
Frederick,Maryland,FrederickMaryland,39.4336,-77.4157
Lakewood,Colorado,LakewoodColorado,39.6977,-105.1168
Tuscaloosa,Alabama,TuscaloosaAlabama,33.2348,-87.5266
Sunnyvale,California,SunnyvaleCalifornia,37.3836,-122.0257
Lake Charles,Louisiana,Lake CharlesLouisiana,30.2022,-93.2141
Hollywood,Florida,HollywoodFlorida,26.0294,-80.1679
Pasadena,Texas,PasadenaTexas,29.6584,-95.1499
Pomona,California,PomonaCalifornia,34.0585,-117.7626
Kansas City,Kansas,Kansas CityKansas,39.1234,-94.7443
Macon,Georgia,MaconGeorgia,32.8065,-83.6974
Escondido,California,EscondidoCalifornia,33.1347,-117.0723
Binghamton,New York,BinghamtonNew York,42.1014,-75.9093
Warner Robins,Georgia,Warner RobinsGeorgia,32.5975,-83.6526
New Bedford,Massachusetts,New BedfordMassachusetts,41.6697,-70.9428
Topeka,Kansas,TopekaKansas,39.0346,-95.6955
Beaumont,Texas,BeaumontTexas,30.085,-94.1451
Paterson,New Jersey,PatersonNew Jersey,40.9147,-74.1624
Joliet,Illinois,JolietIllinois,41.5189,-88.1499
Leesburg,Florida,LeesburgFlorida,28.7658,-81.8995
Elkhart,Indiana,ElkhartIndiana,41.6912,-85.962
Odessa,Texas,OdessaTexas,31.8831,-102.3406
Naperville,Illinois,NapervilleIllinois,41.7483,-88.1657
Fairfield,California,FairfieldCalifornia,38.2594,-122.0319
Torrance,California,TorranceCalifornia,33.8346,-118.3417
Panama City,Florida,Panama CityFlorida,30.1995,-85.6003
Metairie,Louisiana,MetairieLouisiana,29.9976,-90.1781
Bellevue,Washington,BellevueWashington,47.5953,-122.155
Midland,Texas,MidlandTexas,32.0249,-102.1137
Merced,California,MercedCalifornia,37.3057,-120.4779
Mesquite,Texas,MesquiteTexas,32.7623,-96.5889
Houma,Louisiana,HoumaLouisiana,29.5799,-90.7058
Charleston,West Virginia,CharlestonWest Virginia,38.3484,-81.6323
Pasadena,California,PasadenaCalifornia,34.1597,-118.139
Pueblo,Colorado,PuebloColorado,38.2713,-104.6105
Tyler,Texas,TylerTexas,32.3184,-95.3065
Orange,California,OrangeCalifornia,33.8038,-117.8218
Fullerton,California,FullertonCalifornia,33.8841,-117.9279
Miramar,Florida,MiramarFlorida,25.9773,-80.3351
Santa Maria,California,Santa MariaCalifornia,34.9333,-120.4432
Athens,Georgia,AthensGeorgia,33.9508,-83.3689
Columbia,Missouri,ColumbiaMissouri,38.9477,-92.3255
Yuma,Arizona,YumaArizona,32.5991,-114.5488
Olathe,Kansas,OlatheKansas,38.8832,-94.8198
Thornton,Colorado,ThorntonColorado,39.9205,-104.9443
Harlingen,Texas,HarlingenTexas,26.1916,-97.6976
Grand Junction,Colorado,Grand JunctionColorado,39.0877,-108.5673
West Valley City,Utah,West Valley CityUtah,40.6889,-112.0115
Carrollton,Texas,CarrolltonTexas,32.989,-96.8999
Roseville,California,RosevilleCalifornia,38.7691,-121.3178
Warren,Michigan,WarrenMichigan,42.4934,-83.027
Bloomington,Illinois,BloomingtonIllinois,40.4757,-88.9703
Hampton,Virginia,HamptonVirginia,37.0551,-76.3629
Ramapo,New York,RamapoNew York,41.1404,-74.1072
Surprise,Arizona,SurpriseArizona,33.68,-112.4524
Las Cruces,New Mexico,Las CrucesNew Mexico,32.3265,-106.7893
Greeley,Colorado,GreeleyColorado,40.4151,-104.7705
Yakima,Washington,YakimaWashington,46.5923,-120.5496
Coral Springs,Florida,Coral SpringsFlorida,26.2702,-80.2591
Sterling Heights,Michigan,Sterling HeightsMichigan,42.5809,-83.0305
Mauldin,South Carolina,MauldinSouth Carolina,34.7866,-82.2997
Racine,Wisconsin,RacineWisconsin,42.7274,-87.8135
Stamford,Connecticut,StamfordConnecticut,41.1035,-73.5583
Elizabeth,New Jersey,ElizabethNew Jersey,40.6657,-74.1912
Kent,Washington,KentWashington,47.3887,-122.2128
Greenville,North Carolina,GreenvilleNorth Carolina,35.5956,-77.3768
Simi Valley,California,Simi ValleyCalifornia,34.2663,-118.749
Burlington,North Carolina,BurlingtonNorth Carolina,36.0762,-79.4687
Santa Clara,California,Santa ClaraCalifornia,37.3646,-121.968
Johnson City,Tennessee,Johnson CityTennessee,36.3406,-82.3803
Boulder,Colorado,BoulderColorado,40.0249,-105.2523
Bellingham,Washington,BellinghamWashington,48.7543,-122.4687
Fort Smith,Arkansas,Fort SmithArkansas,35.3493,-94.3695
Amherst,New York,AmherstNew York,43.0117,-78.7569
Lynchburg,Virginia,LynchburgVirginia,37.4003,-79.1909
Kenosha,Wisconsin,KenoshaWisconsin,42.5864,-87.8762
East Los Angeles,California,East Los AngelesCalifornia,34.0326,-118.1691
South Lyon,Michigan,South LyonMichigan,42.4614,-83.6526
Round Rock,Texas,Round RockTexas,30.5254,-97.6659
Berkeley,California,BerkeleyCalifornia,37.8723,-122.276
Billings,Montana,BillingsMontana,45.7889,-108.5509
Redding,California,ReddingCalifornia,40.5698,-122.365
Yuba City,California,Yuba CityCalifornia,39.1357,-121.6381
Duluth,Minnesota,DuluthMinnesota,46.7757,-92.1392
Pearland,Texas,PearlandTexas,29.5585,-95.3215
Leominster,Massachusetts,LeominsterMassachusetts,42.5209,-71.7717
Saginaw,Michigan,SaginawMichigan,43.4199,-83.9501
Iowa City,Iowa,Iowa CityIowa,41.6559,-91.5304
Arvada,Colorado,ArvadaColorado,39.8321,-105.1511
Seaside,California,SeasideCalifornia,36.6224,-121.8191
Kingsport,Tennessee,KingsportTennessee,36.5224,-82.5452
Smithtown,New York,SmithtownNew York,40.8662,-73.2164
Independence,Missouri,IndependenceMissouri,39.0871,-94.3503
Lehigh Acres,Florida,Lehigh AcresFlorida,26.612,-81.6388
Richardson,Texas,RichardsonTexas,32.9717,-96.7092
Rochester,Minnesota,RochesterMinnesota,44.0151,-92.4778
Gilroy,California,GilroyCalifornia,37.0047,-121.5856
El Monte,California,El MonteCalifornia,34.0739,-118.0291
Rock Hill,South Carolina,Rock HillSouth Carolina,34.9413,-81.025
Clearwater,Florida,ClearwaterFlorida,27.9788,-82.7624
Monroe,Louisiana,MonroeLouisiana,32.5183,-92.0775
Dover,Delaware,DoverDelaware,39.161,-75.5203
Carlsbad,California,CarlsbadCalifornia,33.1247,-117.2837
Norman,Oklahoma,NormanOklahoma,35.2335,-97.3471
Abilene,Texas,AbileneTexas,32.4543,-99.7384
Bloomington,Indiana,BloomingtonIndiana,39.1637,-86.5257
Texas City,Texas,Texas CityTexas,29.4128,-94.9658
Temecula,California,TemeculaCalifornia,33.4928,-117.1315
Utica,New York,UticaNew York,43.0961,-75.226
St. Cloud,Minnesota,St. CloudMinnesota,45.5339,-94.1718
St. George,Utah,St. GeorgeUtah,37.077,-113.577
West Jordan,Utah,West JordanUtah,40.6024,-112.0008
Costa Mesa,California,Costa MesaCalifornia,33.6667,-117.9135
Miami Gardens,Florida,Miami GardensFlorida,25.9433,-80.2426
Cambridge,Massachusetts,CambridgeMassachusetts,42.3759,-71.1185
Brandon,Florida,BrandonFlorida,27.9367,-82.3
Downey,California,DowneyCalifornia,33.9379,-118.1312
Coeur d'Alene,Idaho,Coeur d'AleneIdaho,47.704,-116.7933
Westminster,Colorado,WestminsterColorado,39.8837,-105.0624
Elgin,Illinois,ElginIllinois,42.0385,-88.3229
El Centro,California,El CentroCalifornia,32.7867,-115.5586
Waterloo,Iowa,WaterlooIowa,42.492,-92.3522
Lowell,Massachusetts,LowellMassachusetts,42.6389,-71.3217
Gresham,Oregon,GreshamOregon,45.5023,-122.4413
North Charleston,South Carolina,North CharlestonSouth Carolina,32.9067,-80.0722
San Buenaventura,California,San BuenaventuraCalifornia,34.2741,-119.2314
Inglewood,California,InglewoodCalifornia,33.9566,-118.3444
Pompano Beach,Florida,Pompano BeachFlorida,26.2428,-80.1312
Centennial,Colorado,CentennialColorado,39.5926,-104.8674
West Palm Beach,Florida,West Palm BeachFlorida,26.7469,-80.1316
Everett,Washington,EverettWashington,47.9524,-122.167
Santa Fe,New Mexico,Santa FeNew Mexico,35.6619,-105.9819
Richmond,California,RichmondCalifornia,37.9477,-122.339
Clovis,California,ClovisCalifornia,36.8277,-119.6838
The Woodlands,Texas,The WoodlandsTexas,30.1738,-95.5134
Pottstown,Pennsylvania,PottstownPennsylvania,40.2507,-75.6444
Jacksonville,North Carolina,JacksonvilleNorth Carolina,34.7287,-77.394
Broken Arrow,Oklahoma,Broken ArrowOklahoma,36.0365,-95.7809
Burlington,Vermont,BurlingtonVermont,44.4877,-73.2314
West Covina,California,West CovinaCalifornia,34.0555,-117.9112
Turlock,California,TurlockCalifornia,37.5053,-120.8587
Daly City,California,Daly CityCalifornia,37.6863,-122.4684
Eau Claire,Wisconsin,Eau ClaireWisconsin,44.82,-91.4951
Hillsboro,Oregon,HillsboroOregon,45.5272,-122.936
Sandy Springs,Georgia,Sandy SpringsGeorgia,33.9366,-84.3703
Sioux City,Iowa,Sioux CityIowa,42.4959,-96.3901
Chico,California,ChicoCalifornia,39.7575,-121.8152
Norwalk,California,NorwalkCalifornia,33.9069,-118.0829
Salisbury,Maryland,SalisburyMaryland,38.3755,-75.5867
Jurupa Valley,California,Jurupa ValleyCalifornia,34.001,-117.4706
Lewisville,Texas,LewisvilleTexas,33.0452,-96.9823
Highlands Ranch,Colorado,Highlands RanchColorado,39.5419,-104.9708
Davie,Florida,DavieFlorida,26.0789,-80.287
League City,Texas,League CityTexas,29.4874,-95.1087
Burbank,California,BurbankCalifornia,34.1879,-118.3235
San Mateo,California,San MateoCalifornia,37.5522,-122.3122
Spring Hill,Florida,Spring HillFlorida,28.4797,-82.53
El Cajon,California,El CajonCalifornia,32.8017,-116.9604
Rialto,California,RialtoCalifornia,34.1175,-117.3894
Bend,Oregon,BendOregon,44.0562,-121.3087
Columbia,Maryland,ColumbiaMaryland,39.2004,-76.859
Edison,New Jersey,EdisonNew Jersey,40.536,-74.3697
Charlottesville,Virginia,CharlottesvilleVirginia,38.0375,-78.4855
La Crosse,Wisconsin,La CrosseWisconsin,43.8241,-91.2268
Temple,Texas,TempleTexas,31.1076,-97.3894
Woodbridge,New Jersey,WoodbridgeNew Jersey,40.5611,-74.2943
Vista,California,VistaCalifornia,33.1896,-117.2386
Renton,Washington,RentonWashington,47.4758,-122.1905
Sparks,Nevada,SparksNevada,39.5729,-119.7157
Holland,Michigan,HollandMichigan,42.7677,-86.0984
Vacaville,California,VacavilleCalifornia,38.359,-121.968
Logan,Utah,LoganUtah,41.74,-111.8419
Allen,Texas,AllenTexas,33.1088,-96.6735
Longview,Texas,LongviewTexas,32.5192,-94.7622
Arden-Arcade,California,Arden-ArcadeCalifornia,38.6034,-121.381
Orem,Utah,OremUtah,40.2983,-111.6992
Compton,California,ComptonCalifornia,33.893,-118.2275
Bismarck,North Dakota,BismarckNorth Dakota,46.814,-100.7695
South Gate,California,South GateCalifornia,33.9448,-118.1926
Sunrise,Florida,SunriseFlorida,26.1547,-80.2997
Quincy,Massachusetts,QuincyMassachusetts,42.2516,-71.0183
Lynn,Massachusetts,LynnMassachusetts,42.4779,-70.9663
Miami Beach,Florida,Miami BeachFlorida,25.8171,-80.1396
Santa Monica,California,Santa MonicaCalifornia,34.0232,-118.4813
Westminster,California,WestminsterCalifornia,33.7523,-117.9938
Germantown,Maryland,GermantownMaryland,39.1755,-77.2643
San Leandro,California,San LeandroCalifornia,37.7071,-122.1601
State College,Pennsylvania,State CollegePennsylvania,40.791,-77.8568
Citrus Heights,California,Citrus HeightsCalifornia,38.6948,-121.288
Hawthorne,California,HawthorneCalifornia,33.9146,-118.3476
Whittier,California,WhittierCalifornia,33.9678,-118.0188
Clifton,New Jersey,CliftonNew Jersey,40.8631,-74.1575
Alhambra,California,AlhambraCalifornia,34.084,-118.1355
Buena Park,California,Buena ParkCalifornia,33.8572,-118.0046
Cicero,Illinois,CiceroIllinois,41.8445,-87.7593
Mountain View,California,Mountain ViewCalifornia,37.4,-122.0796
Somerville,Massachusetts,SomervilleMassachusetts,42.3908,-71.1013
Lakewood,California,LakewoodCalifornia,33.8471,-118.1221
Deerfield Beach,Florida,Deerfield BeachFlorida,26.3049,-80.1277
Tustin,California,TustinCalifornia,33.7309,-117.8106
Lawrence,Massachusetts,LawrenceMassachusetts,42.7003,-71.1626
New Rochelle,New York,New RochelleNew York,40.9305,-73.7836
Silver Spring,Maryland,Silver SpringMaryland,39.0028,-77.0207
Alameda,California,AlamedaCalifornia,37.767,-122.2673
Cheyenne,Wyoming,CheyenneWyoming,41.1405,-104.7927
Milpitas,California,MilpitasCalifornia,37.434,-121.8921
Lebanon,Pennsylvania,LebanonPennsylvania,40.3412,-76.4228
Bellflower,California,BellflowerCalifornia,33.888,-118.1271
Watsonville,California,WatsonvilleCalifornia,36.9206,-121.7706
Davis,California,DavisCalifornia,38.5552,-121.7365
Baldwin Park,California,Baldwin ParkCalifornia,34.0829,-117.9721
Evanston,Illinois,EvanstonIllinois,42.0463,-87.6942
Centreville,Virginia,CentrevilleVirginia,38.8391,-77.4388
Camden,New Jersey,CamdenNew Jersey,39.9362,-75.1073
Pine Hills,Florida,Pine HillsFlorida,28.5818,-81.4693
New Britain,Connecticut,New BritainConnecticut,41.6758,-72.7862
Pawtucket,Rhode Island,PawtucketRhode Island,41.8744,-71.3743
Lauderhill,Florida,LauderhillFlorida,26.1605,-80.2242
Passaic,New Jersey,PassaicNew Jersey,40.8574,-74.1282
Wilmington,Delaware,WilmingtonDelaware,39.7415,-75.5413
Lynwood,California,LynwoodCalifornia,33.924,-118.2017
Union City,New Jersey,Union CityNew Jersey,40.7674,-74.0323
Gaithersburg,Maryland,GaithersburgMaryland,39.1346,-77.2132
Mount Vernon,New York,Mount VernonNew York,40.9136,-73.8291
Redondo Beach,California,Redondo BeachCalifornia,33.8574,-118.3766
South San Francisco,California,South San FranciscoCalifornia,37.6536,-122.4197
Bayonne,New Jersey,BayonneNew Jersey,40.6661,-74.1142
Tamarac,Florida,TamaracFlorida,26.2057,-80.2549
Schenectady,New York,SchenectadyNew York,42.8025,-73.9276
East Orange,New Jersey,East OrangeNew Jersey,40.7651,-74.2117
Skokie,Illinois,SkokieIllinois,42.036,-87.74
Florence-Graham,California,Florence-GrahamCalifornia,33.9682,-118.2447
Pico Rivera,California,Pico RiveraCalifornia,33.9902,-118.0888
North Bergen,New Jersey,North BergenNew Jersey,40.7938,-74.0241
Montebello,California,MontebelloCalifornia,34.0155,-118.1108
Brentwood,New York,BrentwoodNew York,40.7839,-73.2522
La Habra,California,La HabraCalifornia,33.9278,-117.9513
North Miami,Florida,North MiamiFlorida,25.9007,-80.1686
National City,California,National CityCalifornia,32.6654,-117.0983
Malden,Massachusetts,MaldenMassachusetts,42.4305,-71.0576
Monterey Park,California,Monterey ParkCalifornia,34.0497,-118.1326
Coconut Creek,Florida,Coconut CreekFlorida,26.2802,-80.1842
Cupertino,California,CupertinoCalifornia,37.3168,-122.0465
Gardena,California,GardenaCalifornia,33.8944,-118.3073
La Mesa,California,La MesaCalifornia,32.7703,-117.0204
South Whittier,California,South WhittierCalifornia,33.9336,-118.0311
Taylorsville,Utah,TaylorsvilleUtah,40.6569,-111.9493
West Allis,Wisconsin,West AllisWisconsin,43.0068,-88.0296
Kendale Lakes,Florida,Kendale LakesFlorida,25.7081,-80.4078
Fountainebleau,Florida,FountainebleauFlorida,25.7723,-80.3458
Brookline,Massachusetts,BrooklineMassachusetts,42.3243,-71.1408
White Plains,New York,White PlainsNew York,41.022,-73.7549
The Hammocks,Florida,The HammocksFlorida,25.67,-80.4483
Huntington Park,California,Huntington ParkCalifornia,33.98,-118.2167
Arcadia,California,ArcadiaCalifornia,34.1342,-118.0373
Union,New Jersey,UnionNew Jersey,40.6953,-74.2697
Margate,Florida,MargateFlorida,26.2466,-80.2119
Jefferson City,Missouri,Jefferson CityMissouri,38.5676,-92.1759
Tamiami,Florida,TamiamiFlorida,25.7556,-80.4016
Middletown,New York,MiddletownNew York,41.4458,-74.4228
Medford,Massachusetts,MedfordMassachusetts,42.4234,-71.1087
Carson City,Nevada,Carson CityNevada,39.1511,-119.7474
New Brunswick,New Jersey,New BrunswickNew Jersey,40.487,-74.445
Fountain Valley,California,Fountain ValleyCalifornia,33.7105,-117.9514
Oak Lawn,Illinois,Oak LawnIllinois,41.7139,-87.7528
Hempstead,New York,HempsteadNew York,40.7043,-73.6193
Berwyn,Illinois,BerwynIllinois,41.8433,-87.7909
Ithaca,New York,IthacaNew York,42.4442,-76.5032
Aloha,Oregon,AlohaOregon,45.492,-122.8726
Hoboken,New Jersey,HobokenNew Jersey,40.7451,-74.0279
Paramount,California,ParamountCalifornia,33.8977,-118.1652
Irvington,New Jersey,IrvingtonNew Jersey,40.7243,-74.2317
Rosemead,California,RosemeadCalifornia,34.0688,-118.0823
West New York,New Jersey,West New YorkNew Jersey,40.7856,-74.0093
Revere,Massachusetts,RevereMassachusetts,42.4191,-71.0035
Perth Amboy,New Jersey,Perth AmboyNew Jersey,40.5203,-74.2724
Aspen Hill,Maryland,Aspen HillMaryland,39.0928,-77.0822
Oak Park,Illinois,Oak ParkIllinois,41.8872,-87.7899
Placentia,California,PlacentiaCalifornia,33.8807,-117.8553
Levittown,New York,LevittownNew York,40.7241,-73.5125
Aliso Viejo,California,Aliso ViejoCalifornia,33.5792,-117.7289
Plainfield,New Jersey,PlainfieldNew Jersey,40.6154,-74.4157
Cerritos,California,CerritosCalifornia,33.8677,-118.0686
Lakewood,Ohio,LakewoodOhio,41.4824,-81.8008
Helena,Montana,HelenaMontana,46.5965,-112.0199
Wheaton,Maryland,WheatonMaryland,39.0492,-77.0572
North Bethesda,Maryland,North BethesdaMaryland,39.0393,-77.1191
Florin,California,FlorinCalifornia,38.4832,-121.4042
Country Club,Florida,Country ClubFlorida,25.9407,-80.3102
La Mirada,California,La MiradaCalifornia,33.9025,-118.0093
Cypress,California,CypressCalifornia,33.8171,-118.0386
Bloomfield,New Jersey,BloomfieldNew Jersey,40.8098,-74.1868
Ceres,California,CeresCalifornia,37.5953,-120.9625
Covina,California,CovinaCalifornia,34.0903,-117.8817
Antelope,California,AntelopeCalifornia,38.7153,-121.361
North Highlands,California,North HighlandsCalifornia,38.6713,-121.3721
Everett,Massachusetts,EverettMassachusetts,42.4064,-71.0545
Hollister,California,HollisterCalifornia,36.8563,-121.3981
Hackensack,New Jersey,HackensackNew Jersey,40.889,-74.0461
Altadena,California,AltadenaCalifornia,34.1928,-118.1345
Oakland Park,Florida,Oakland ParkFlorida,26.178,-80.1528
Arlington,Massachusetts,ArlingtonMassachusetts,42.4187,-71.1639
University,Florida,UniversityFlorida,28.0771,-82.4335
Cleveland Heights,Ohio,Cleveland HeightsOhio,41.5112,-81.5636
Annandale,Virginia,AnnandaleVirginia,38.8324,-77.196
North Lauderdale,Florida,North LauderdaleFlorida,26.2113,-80.2209
North Miami Beach,Florida,North Miami BeachFlorida,25.9302,-80.166
Whitney,Nevada,WhitneyNevada,36.1005,-115.038
Freeport,New York,FreeportNew York,40.6515,-73.585
Salem,Massachusetts,SalemMassachusetts,42.5129,-70.902
San Bruno,California,San BrunoCalifornia,37.6254,-122.4313
West Babylon,New York,West BabylonNew York,40.7112,-73.3567
Concord,New Hampshire,ConcordNew Hampshire,43.2305,-71.5595
Rohnert Park,California,Rohnert ParkCalifornia,38.348,-122.6964
Bell Gardens,California,Bell GardensCalifornia,33.9663,-118.155
Hicksville,New York,HicksvilleNew York,40.7637,-73.5245
Woonsocket,Rhode Island,WoonsocketRhode Island,42.001,-71.4993
Waipahu,Hawaii,WaipahuHawaii,21.3858,-158.0103
Campbell,California,CampbellCalifornia,37.2801,-121.9538
Teaneck,New Jersey,TeaneckNew Jersey,40.89,-74.0107
Wilkes-Barre,Pennsylvania,Wilkes-BarrePennsylvania,41.2468,-75.8759
Greenacres,Florida,GreenacresFlorida,26.6272,-80.1372
San Gabriel,California,San GabrielCalifornia,34.0948,-118.099
La Puente,California,La PuenteCalifornia,34.0323,-117.9533
Chelsea,Massachusetts,ChelseaMassachusetts,42.3959,-71.0325
Kendall West,Florida,Kendall WestFlorida,25.7065,-80.4388
Hallandale Beach,Florida,Hallandale BeachFlorida,25.9854,-80.1423
Marumsco,Virginia,MarumscoVirginia,38.6373,-77.262
Annapolis,Maryland,AnnapolisMaryland,38.9706,-76.5047
Keizer,Oregon,KeizerOregon,45.0029,-123.0241
South Miami Heights,Florida,South Miami HeightsFlorida,25.5886,-80.3862
Culver City,California,Culver CityCalifornia,34.0058,-118.3968
Montclair,California,MontclairCalifornia,34.0714,-117.6981
Northglenn,Colorado,NorthglennColorado,39.9107,-104.9783
Frankfort,Kentucky,FrankfortKentucky,38.1924,-84.8643
Montclair,New Jersey,MontclairNew Jersey,40.8254,-74.211
Mission Bend,Texas,Mission BendTexas,29.6948,-95.6657
Stanton,California,StantonCalifornia,33.8002,-117.9935
Aventura,Florida,AventuraFlorida,25.9565,-80.1372
Lake Worth,Florida,Lake WorthFlorida,26.6195,-80.0591
Hanover Park,Illinois,Hanover ParkIllinois,41.9818,-88.1447
Valley Stream,New York,Valley StreamNew York,40.6647,-73.7044
Fort Lee,New Jersey,Fort LeeNew Jersey,40.8509,-73.9712
Park Ridge,Illinois,Park RidgeIllinois,42.0125,-87.8436
East Meadow,New York,East MeadowNew York,40.7197,-73.5604
Kearns,Utah,KearnsUtah,40.652,-112.0093
West Hollywood,California,West HollywoodCalifornia,34.0883,-118.3719
Egypt Lake-Leto,Florida,Egypt Lake-LetoFlorida,28.0177,-82.5062
Richmond West,Florida,Richmond WestFlorida,25.6105,-80.4297
Lincoln Park,Michigan,Lincoln ParkMichigan,42.2432,-83.1811
Elmont,New York,ElmontNew York,40.7033,-73.7078
Belleville,New Jersey,BellevilleNew Jersey,40.795,-74.1616
Temple City,California,Temple CityCalifornia,34.1022,-118.0579
La Presa,California,La PresaCalifornia,32.711,-117.0027
Richfield,Minnesota,RichfieldMinnesota,44.8762,-93.2833
Lauderdale Lakes,Florida,Lauderdale LakesFlorida,26.1682,-80.2017
Chillum,Maryland,ChillumMaryland,38.9667,-76.979
Manhattan Beach,California,Manhattan BeachCalifornia,33.8895,-118.3972
Bell,California,BellCalifornia,33.9801,-118.1798
Watertown Town,Massachusetts,Watertown TownMassachusetts,42.37,-71.1774
University City,Missouri,University CityMissouri,38.6657,-90.3315
Norristown,Pennsylvania,NorristownPennsylvania,40.1224,-75.3398
Oildale,California,OildaleCalifornia,35.4249,-119.0279
Beverly Hills,California,Beverly HillsCalifornia,34.0786,-118.4021
Foster City,California,Foster CityCalifornia,37.5553,-122.2659
Englewood,Colorado,EnglewoodColorado,39.6468,-104.9942
Kaneohe,Hawaii,KaneoheHawaii,21.4062,-157.7904
Chester,Pennsylvania,ChesterPennsylvania,39.8456,-75.3719
Golden Glades,Florida,Golden GladesFlorida,25.9129,-80.2013
Glendale Heights,Illinois,Glendale HeightsIllinois,41.9196,-88.0785
Dana Point,California,Dana PointCalifornia,33.4733,-117.6969
Fair Oaks,Virginia,Fair OaksVirginia,38.8653,-77.3586
Long Beach,New York,Long BeachNew York,40.5887,-73.666
Fair Lawn,New Jersey,Fair LawnNew Jersey,40.9359,-74.1177
Foothill Farms,California,Foothill FarmsCalifornia,38.6867,-121.3475
Buenaventura Lakes,Florida,Buenaventura LakesFlorida,28.3349,-81.3539
Montgomery Village,Maryland,Montgomery VillageMaryland,39.1783,-77.1957
Westmont,California,WestmontCalifornia,33.9417,-118.3018
Huntington Station,New York,Huntington StationNew York,40.8446,-73.405
Midvale,Utah,MidvaleUtah,40.6148,-111.8928
Eastchester,New York,EastchesterNew York,40.9536,-73.8134
Lawndale,California,LawndaleCalifornia,33.8884,-118.3531
Spring Valley,New York,Spring ValleyNew York,41.1151,-74.0486
Eastpointe,Michigan,EastpointeMichigan,42.4657,-82.9461
Franklin Square,New York,Franklin SquareNew York,40.7002,-73.6775
West Little River,Florida,West Little RiverFlorida,25.857,-80.2367
Garfield,New Jersey,GarfieldNew Jersey,40.8791,-74.1085
North Providence,Rhode Island,North ProvidenceRhode Island,41.8616,-71.4575
College Park,Maryland,College ParkMaryland,38.996,-76.9337
Parkville,Maryland,ParkvilleMaryland,39.3832,-76.5519
Uniondale,New York,UniondaleNew York,40.7176,-73.5947
San Pablo,California,San PabloCalifornia,37.9628,-122.3425
Miami Lakes,Florida,Miami LakesFlorida,25.9125,-80.3214
Long Branch,New Jersey,Long BranchNew Jersey,40.2965,-73.9915
Santa Paula,California,Santa PaulaCalifornia,34.3521,-119.0698
City of Orange,New Jersey,City of OrangeNew Jersey,40.7682,-74.2348
Oceanside,New York,OceansideNew York,40.6328,-73.6363
Burlingame,California,BurlingameCalifornia,37.586,-122.3669
Westchester,Florida,WestchesterFlorida,25.7474,-80.3358
San Carlos,California,San CarlosCalifornia,37.4982,-122.268
Bay Shore,New York,Bay ShoreNew York,40.7317,-73.2505
Sterling,Virginia,SterlingVirginia,39.0052,-77.405
Rahway,New Jersey,RahwayNew Jersey,40.6077,-74.2807
Golden Gate,Florida,Golden GateFlorida,26.1844,-81.7031
East Palo Alto,California,East Palo AltoCalifornia,37.4671,-122.1352
Port Chester,New York,Port ChesterNew York,41.0052,-73.668
Oak Park,Michigan,Oak ParkMichigan,42.4649,-83.1824
Suisun City,California,Suisun CityCalifornia,38.2471,-122.0086
West Falls Church,Virginia,West Falls ChurchVirginia,38.8648,-77.1878
Englewood,New Jersey,EnglewoodNew Jersey,40.8917,-73.9736
Shamokin,Pennsylvania,ShamokinPennsylvania,40.7883,-76.555
Nutley,New Jersey,NutleyNew Jersey,40.8192,-74.1571
Burbank,Illinois,BurbankIllinois,41.7444,-87.7686
Ladera Ranch,California,Ladera RanchCalifornia,33.5491,-117.6416
Melrose,Massachusetts,MelroseMassachusetts,42.4556,-71.059
Newburgh,New York,NewburghNew York,41.5037,-74.0205
Mililani Town,Hawaii,Mililani TownHawaii,21.4465,-158.0147
Drexel Hill,Pennsylvania,Drexel HillPennsylvania,39.9495,-75.3039
Winchester,Nevada,WinchesterNevada,36.1368,-115.1299
Bergenfield,New Jersey,BergenfieldNew Jersey,40.9236,-73.9982
Maywood,California,MaywoodCalifornia,33.9885,-118.1877
Isla Vista,California,Isla VistaCalifornia,34.4144,-119.8581
Imperial Beach,California,Imperial BeachCalifornia,32.5689,-117.1184
Leisure City,Florida,Leisure CityFlorida,25.4937,-80.4369
Lindenhurst,New York,LindenhurstNew York,40.6858,-73.3709
Belmont,California,BelmontCalifornia,37.5154,-122.2955
Easton,Pennsylvania,EastonPennsylvania,40.6858,-75.2209
Lemon Grove,California,Lemon GroveCalifornia,32.7331,-117.0344
Indiana,Pennsylvania,IndianaPennsylvania,40.622,-79.1552
West Whittier-Los Nietos,California,West Whittier-Los NietosCalifornia,33.9759,-118.0689
Reisterstown,Maryland,ReisterstownMaryland,39.4552,-76.8144
University Park,Florida,University ParkFlorida,25.7469,-80.3684
Soledad,California,SoledadCalifornia,36.4434,-121.3431
Belmont,Massachusetts,BelmontMassachusetts,42.396,-71.1795
Laurel,Maryland,LaurelMaryland,39.095,-76.8622
South Pasadena,California,South PasadenaCalifornia,34.1103,-118.1573
El Cerrito,California,El CerritoCalifornia,37.9197,-122.3025
Ossining,New York,OssiningNew York,41.1609,-73.8712
Baldwin,New York,BaldwinNew York,40.6634,-73.6104
University Park,Texas,University ParkTexas,32.8506,-96.7937
Melrose Park,Illinois,Melrose ParkIllinois,41.9029,-87.8642
Juneau,Alaska,JuneauAlaska,58.4546,-134.1739
Cliffside Park,New Jersey,Cliffside ParkNew Jersey,40.8221,-73.988
San Lorenzo,California,San LorenzoCalifornia,37.6737,-122.1349
Valinda,California,ValindaCalifornia,34.04,-117.9301
Lodi,New Jersey,LodiNew Jersey,40.8784,-74.0814
South Bradenton,Florida,South BradentonFlorida,27.4612,-82.5821
Suitland,Maryland,SuitlandMaryland,38.8492,-76.9225
Palm Springs,Florida,Palm SpringsFlorida,26.6349,-80.0968
Rockville Centre,New York,Rockville CentreNew York,40.6643,-73.6383
Riverbank,California,RiverbankCalifornia,37.7268,-120.9402
Coral Terrace,Florida,Coral TerraceFlorida,25.7464,-80.3049
San Fernando,California,San FernandoCalifornia,34.2886,-118.4363
Maplewood,New Jersey,MaplewoodNew Jersey,40.733,-74.2711
Watauga,Texas,WataugaTexas,32.8718,-97.2515
Elmwood Park,Illinois,Elmwood ParkIllinois,41.9225,-87.8163
Herndon,Virginia,HerndonVirginia,38.9699,-77.3867
Bailey's Crossroads,Virginia,Bailey's CrossroadsVirginia,38.8477,-77.1305
Ashland,California,AshlandCalifornia,37.6942,-122.1159
Oak Ridge,Florida,Oak RidgeFlorida,28.4727,-81.4169
Peekskill,New York,PeekskillNew York,41.2883,-73.9227
Terrytown,Louisiana,TerrytownLouisiana,29.9016,-90.028
Ewa Gentry,Hawaii,Ewa GentryHawaii,21.3344,-158.0262
Hialeah Gardens,Florida,Hialeah GardensFlorida,25.8878,-80.3569
Kiryas Joel,New York,Kiryas JoelNew York,41.3404,-74.1658
Carteret,New Jersey,CarteretNew Jersey,40.5848,-74.2284
Cudahy,California,CudahyCalifornia,33.9631,-118.183
Cloverleaf,Texas,CloverleafTexas,29.7882,-95.1724
Decatur,Georgia,DecaturGeorgia,33.7711,-84.2968
Rosemont,California,RosemontCalifornia,38.5477,-121.3553
Maywood,Illinois,MaywoodIllinois,41.8798,-87.8442
West Rancho Dominguez,California,West Rancho DominguezCalifornia,33.9057,-118.2682
West Puente Valley,California,West Puente ValleyCalifornia,34.0512,-117.9681
Blue Island,Illinois,Blue IslandIllinois,41.6578,-87.6812
The Crossings,Florida,The CrossingsFlorida,25.6708,-80.4018
Copiague,New York,CopiagueNew York,40.6728,-73.3932
Landover,Maryland,LandoverMaryland,38.9241,-76.8875
Millbrae,California,MillbraeCalifornia,37.5994,-122.4024
Willowbrook,California,WillowbrookCalifornia,33.9199,-118.2362
Ives Estates,Florida,Ives EstatesFlorida,25.9632,-80.183
Sunny Isles Beach,Florida,Sunny Isles BeachFlorida,25.9385,-80.1246
West Carson,California,West CarsonCalifornia,33.8229,-118.2931
Massapequa,New York,MassapequaNew York,40.6676,-73.4706
Hillside,New Jersey,HillsideNew Jersey,40.6961,-74.2286
North Plainfield,New Jersey,North PlainfieldNew Jersey,40.6209,-74.4386
Monsey,New York,MonseyNew York,41.1181,-74.0681
Roselle,New Jersey,RoselleNew Jersey,40.6527,-74.2599
North Bay Shore,New York,North Bay ShoreNew York,40.7601,-73.2618
Hamtramck,Michigan,HamtramckMichigan,42.3954,-83.056
Hayesville,Oregon,HayesvilleOregon,44.9793,-122.9739
Lennox,California,LennoxCalifornia,33.938,-118.3586
Mountlake Terrace,Washington,Mountlake TerraceWashington,47.7921,-122.3076
McNair,Virginia,McNairVirginia,38.9513,-77.4116
Sweetwater,Florida,SweetwaterFlorida,25.7786,-80.376
Palisades Park,New Jersey,Palisades ParkNew Jersey,40.8472,-73.9967
South El Monte,California,South El MonteCalifornia,34.0493,-118.0484
Lomita,California,LomitaCalifornia,33.7933,-118.3175
Merrick,New York,MerrickNew York,40.6515,-73.5535
North Lynnwood,Washington,North LynnwoodWashington,47.8533,-122.2762
Makakilo,Hawaii,MakakiloHawaii,21.3591,-158.0813
Jasmine Estates,Florida,Jasmine EstatesFlorida,28.293,-82.6907
Elmwood Park,New Jersey,Elmwood ParkNew Jersey,40.905,-74.1201
South San Jose Hills,California,South San Jose HillsCalifornia,34.0123,-117.9041
Columbia Heights,Minnesota,Columbia HeightsMinnesota,45.0484,-93.2472
Schofield Barracks,Hawaii,Schofield BarracksHawaii,21.4936,-158.0617
Franconia,Virginia,FranconiaVirginia,38.7682,-77.1587
Albany,California,AlbanyCalifornia,37.8898,-122.3018
West Chester,Pennsylvania,West ChesterPennsylvania,39.9601,-75.6058
Bayshore Gardens,Florida,Bayshore GardensFlorida,27.4345,-82.5794
North Bellmore,New York,North BellmoreNew York,40.6904,-73.539
Norwood,Ohio,NorwoodOhio,39.1604,-84.4534
West Hempstead,New York,West HempsteadNew York,40.6959,-73.6507
North Amityville,New York,North AmityvilleNew York,40.7005,-73.4118
Lynbrook,New York,LynbrookNew York,40.6579,-73.6742
Hermosa Beach,California,Hermosa BeachCalifornia,33.8654,-118.3966
La Crescenta-Montrose,California,La Crescenta-MontroseCalifornia,34.2323,-118.2353
Langley Park,Maryland,Langley ParkMaryland,38.9897,-76.9808
Evergreen Park,Illinois,Evergreen ParkIllinois,41.7213,-87.7013
Mamaroneck,New York,MamaroneckNew York,40.9469,-73.7316
Iselin,New Jersey,IselinNew Jersey,40.5702,-74.317
Mineola,New York,MineolaNew York,40.7469,-73.6392
Central Falls,Rhode Island,Central FallsRhode Island,41.89,-71.3934
North Valley Stream,New York,North Valley StreamNew York,40.684,-73.7077
Hawthorne,New Jersey,HawthorneNew Jersey,40.9579,-74.1581
Morristown,New Jersey,MorristownNew Jersey,40.7966,-74.4772
Bellwood,Illinois,BellwoodIllinois,41.8829,-87.8762
Avenel,New Jersey,AvenelNew Jersey,40.5839,-74.272
Bellaire,Texas,BellaireTexas,29.704,-95.4621
Rutherford,New Jersey,RutherfordNew Jersey,40.8203,-74.1057
Brookfield,Illinois,BrookfieldIllinois,41.8245,-87.847
East Massapequa,New York,East MassapequaNew York,40.6743,-73.4358
Idylwood,Virginia,IdylwoodVirginia,38.8896,-77.2055
Point Pleasant,New Jersey,Point PleasantNew Jersey,40.0772,-74.0702
Winthrop Town,Massachusetts,Winthrop TownMassachusetts,42.3751,-70.9847
Sherrelwood,Colorado,SherrelwoodColorado,39.839,-105.0014
North Massapequa,New York,North MassapequaNew York,40.7031,-73.4679
Bryn Mawr-Skyway,Washington,Bryn Mawr-SkywayWashington,47.4949,-122.2411
Hyattsville,Maryland,HyattsvilleMaryland,38.9612,-76.9548
Dover,New Jersey,DoverNew Jersey,40.8859,-74.5597
Glassmanor,Maryland,GlassmanorMaryland,38.8181,-76.9836
Dumont,New Jersey,DumontNew Jersey,40.9452,-73.9923
Burke Centre,Virginia,Burke CentreVirginia,38.7903,-77.2998
Takoma Park,Maryland,Takoma ParkMaryland,38.981,-77.0028
Sudley,Virginia,SudleyVirginia,38.7878,-77.4961
Seabrook,Maryland,SeabrookMaryland,38.9802,-76.8502
Ojus,Florida,OjusFlorida,25.9563,-80.1606
Greenfield,California,GreenfieldCalifornia,36.3232,-121.2451
Harrison,New Jersey,HarrisonNew Jersey,40.7431,-74.1531
Bostonia,California,BostoniaCalifornia,32.8189,-116.9479
Wahiawa,Hawaii,WahiawaHawaii,21.5004,-158.0198
South Houston,Texas,South HoustonTexas,29.6611,-95.2285
Vincent,California,VincentCalifornia,34.0982,-117.9238
Woodmere,New York,WoodmereNew York,40.6374,-73.7219
Massapequa Park,New York,Massapequa ParkNew York,40.6817,-73.4496
Merrifield,Virginia,MerrifieldVirginia,38.8731,-77.2426
East Cleveland,Ohio,East ClevelandOhio,41.5318,-81.5795
Glenmont,Maryland,GlenmontMaryland,39.0697,-77.0466
Artesia,California,ArtesiaCalifornia,33.8676,-118.0806
New Milford,New Jersey,New MilfordNew Jersey,40.9337,-74.0196
Clayton,Missouri,ClaytonMissouri,38.6444,-90.3303
Hybla Valley,Virginia,Hybla ValleyVirginia,38.7485,-77.0822
Four Corners,Oregon,Four CornersOregon,44.9292,-122.9731
Brownsville,Florida,BrownsvilleFlorida,25.8216,-80.2417
Country Walk,Florida,Country WalkFlorida,25.6331,-80.4353
Manassas Park,Virginia,Manassas ParkVirginia,38.7718,-77.445
Lansdale,Pennsylvania,LansdalePennsylvania,40.2417,-75.2812
South Orange Village,New Jersey,South Orange VillageNew Jersey,40.7491,-74.2602
Hazel Park,Michigan,Hazel ParkMichigan,42.4619,-83.0977
South River,New Jersey,South RiverNew Jersey,40.4455,-74.3783
Kingstowne,Virginia,KingstowneVirginia,38.7625,-77.1445
Avocado Heights,California,Avocado HeightsCalifornia,34.0381,-118.0026
Parkway,California,ParkwayCalifornia,38.4993,-121.452
Hillcrest Heights,Maryland,Hillcrest HeightsMaryland,38.8373,-76.9641
Floral Park,New York,Floral ParkNew York,40.7225,-73.7029
Roosevelt,New York,RooseveltNew York,40.6797,-73.5837
East Rancho Dominguez,California,East Rancho DominguezCalifornia,33.8949,-118.1956
North Arlington,New Jersey,North ArlingtonNew Jersey,40.7875,-74.1273
Cherryland,California,CherrylandCalifornia,37.6792,-122.1038
Palmetto Estates,Florida,Palmetto EstatesFlorida,25.6211,-80.3616
Pinewood,Florida,PinewoodFlorida,25.8697,-80.2174
Walnut Park,California,Walnut ParkCalifornia,33.9683,-118.222
Fords,New Jersey,FordsNew Jersey,40.5415,-74.3124
Adelphi,Maryland,AdelphiMaryland,39.0017,-76.9649
East San Gabriel,California,East San GabrielCalifornia,34.1198,-118.0807
Asbury Park,New Jersey,Asbury ParkNew Jersey,40.2226,-74.0117
Bellmore,New York,BellmoreNew York,40.6569,-73.5285
La Palma,California,La PalmaCalifornia,33.8504,-118.0406
Pacific Grove,California,Pacific GroveCalifornia,36.6191,-121.9255
East Riverdale,Maryland,East RiverdaleMaryland,38.96,-76.9108
West University Place,Texas,West University PlaceTexas,29.7157,-95.4321
North New Hyde Park,New York,North New Hyde ParkNew York,40.746,-73.6876
La Grange,Illinois,La GrangeIllinois,41.8072,-87.8741
Wilkinsburg,Pennsylvania,WilkinsburgPennsylvania,40.4442,-79.8733
Westbury,New York,WestburyNew York,40.7599,-73.5891
North Fair Oaks,California,North Fair OaksCalifornia,37.4754,-122.2035
Seaford,New York,SeafordNew York,40.6678,-73.4922
Eggertsville,New York,EggertsvilleNew York,42.9665,-78.8065
Berkley,Michigan,BerkleyMichigan,42.4986,-83.1853
White Center,Washington,White CenterWashington,47.5086,-122.348
South Farmingdale,New York,South FarmingdaleNew York,40.7175,-73.4471
Stanford,California,StanfordCalifornia,37.4252,-122.1674
Parlier,California,ParlierCalifornia,36.6085,-119.5435
Bull Run,Virginia,Bull RunVirginia,38.7802,-77.5204
McFarland,California,McFarlandCalifornia,35.6781,-119.2414
Kenmore,New York,KenmoreNew York,42.9646,-78.8713
West Park,Florida,West ParkFlorida,25.984,-80.1923
Franklin Park,New Jersey,Franklin ParkNew Jersey,40.4439,-74.5432
Ewa Beach,Hawaii,Ewa BeachHawaii,21.3181,-158.0073
Newport,Kentucky,NewportKentucky,39.0855,-84.4868
Pierre,South Dakota,PierreSouth Dakota,44.3748,-100.3205
Midlothian,Illinois,MidlothianIllinois,41.6254,-87.7243
Haddon,New Jersey,HaddonNew Jersey,39.9063,-75.0625
Falls Church,Virginia,Falls ChurchVirginia,38.8847,-77.1751
Robbinsdale,Minnesota,RobbinsdaleMinnesota,45.0261,-93.3332
Fairview,New Jersey,FairviewNew Jersey,40.8182,-74.0022
Little Falls,New Jersey,Little FallsNew Jersey,40.8762,-74.218
Hawaiian Gardens,California,Hawaiian GardensCalifornia,33.8303,-118.0728
Norridge,Illinois,NorridgeIllinois,41.9637,-87.8231
Olympia Heights,Florida,Olympia HeightsFlorida,25.7241,-80.339
Halawa,Hawaii,HalawaHawaii,21.3754,-157.9185
New Cassel,New York,New CasselNew York,40.76,-73.5649
Weehawken,New Jersey,WeehawkenNew Jersey,40.7676,-74.0167
Chicago Ridge,Illinois,Chicago RidgeIllinois,41.7034,-87.7795
Lemon Hill,California,Lemon HillCalifornia,38.5172,-121.4573
Highland Park,New Jersey,Highland ParkNew Jersey,40.5006,-74.4283
Willowick,Ohio,WillowickOhio,41.6343,-81.468
Saddle Brook,New Jersey,Saddle BrookNew Jersey,40.9033,-74.0955
Collingswood,New Jersey,CollingswoodNew Jersey,39.9161,-75.0759
Riviera Beach,Maryland,Riviera BeachMaryland,39.1628,-76.5263
Forest Park,Illinois,Forest ParkIllinois,41.8683,-87.8157
Whitefish Bay,Wisconsin,Whitefish BayWisconsin,43.1132,-87.9003
Roselle Park,New Jersey,Roselle ParkNew Jersey,40.6653,-74.2666
Bexley,Ohio,BexleyOhio,39.965,-82.9343
Harper Woods,Michigan,Harper WoodsMichigan,42.439,-82.9292
Princeton Meadows,New Jersey,Princeton MeadowsNew Jersey,40.3333,-74.5628
Grover Beach,California,Grover BeachCalifornia,35.1204,-120.6199
Carpinteria,California,CarpinteriaCalifornia,34.3962,-119.5117
Ocean Pointe,Hawaii,Ocean PointeHawaii,21.3145,-158.0289
Gladeview,Florida,GladeviewFlorida,25.8395,-80.2368
Kemp Mill,Maryland,Kemp MillMaryland,39.0412,-77.0214
La Grange Park,Illinois,La Grange ParkIllinois,41.8308,-87.8723
Shorewood,Wisconsin,ShorewoodWisconsin,43.0914,-87.8864
Ardmore,Pennsylvania,ArdmorePennsylvania,40.0032,-75.2947
Key Biscayne,Florida,Key BiscayneFlorida,25.6908,-80.1653
Four Corners,Texas,Four CornersTexas,29.6705,-95.6597
Waimalu,Hawaii,WaimaluHawaii,21.3913,-157.9345
Ridgefield Park,New Jersey,Ridgefield ParkNew Jersey,40.8543,-74.0201
Coatesville,Pennsylvania,CoatesvillePennsylvania,39.9849,-75.8199
University Heights,Ohio,University HeightsOhio,41.4948,-81.5348
New Carrollton,Maryland,New CarrolltonMaryland,38.9654,-76.8773
Sugarland Run,Virginia,Sugarland RunVirginia,39.0309,-77.3762
Huntington,Virginia,HuntingtonVirginia,38.7916,-77.074
Kingston,Pennsylvania,KingstonPennsylvania,41.2652,-75.8875
Clarkston,Georgia,ClarkstonGeorgia,33.8117,-84.2405
Wilton Manors,Florida,Wilton ManorsFlorida,26.1593,-80.1395
Federal Heights,Colorado,Federal HeightsColorado,39.8651,-105.0154
Cornelius,Oregon,CorneliusOregon,45.5189,-123.0516
Patchogue,New York,PatchogueNew York,40.7621,-73.0185
Salisbury,New York,SalisburyNew York,40.7454,-73.5604
North Merrick,New York,North MerrickNew York,40.6871,-73.5615
Somerville,New Jersey,SomervilleNew Jersey,40.5697,-74.6092
Edgewater,New Jersey,EdgewaterNew Jersey,40.8238,-73.9739
Cherry Creek,Colorado,Cherry CreekColorado,39.6094,-104.8645
South Miami,Florida,South MiamiFlorida,25.7079,-80.2952
Hasbrouck Heights,New Jersey,Hasbrouck HeightsNew Jersey,40.8618,-74.0741
Westwood Lakes,Florida,Westwood LakesFlorida,25.7237,-80.3717
Haverstraw,New York,HaverstrawNew York,41.1934,-73.952
Red Bank,New Jersey,Red BankNew Jersey,40.3481,-74.0672
Alum Rock,California,Alum RockCalifornia,37.3694,-121.8241
North Wantagh,New York,North WantaghNew York,40.6983,-73.5086
Home Gardens,California,Home GardensCalifornia,33.8784,-117.5116
Clawson,Michigan,ClawsonMichigan,42.5367,-83.1504
Freehold,New Jersey,FreeholdNew Jersey,40.2596,-74.2755
Wallington,New Jersey,WallingtonNew Jersey,40.8535,-74.1069
Oak Hills,Oregon,Oak HillsOregon,45.5403,-122.8413
Minnehaha,Washington,MinnehahaWashington,45.6577,-122.6204
Emeryville,California,EmeryvilleCalifornia,37.8382,-122.2932
River Edge,New Jersey,River EdgeNew Jersey,40.9268,-74.0387
Guttenberg,New Jersey,GuttenbergNew Jersey,40.7927,-74.0048
Signal Hill,California,Signal HillCalifornia,33.8029,-118.1681
Waipio,Hawaii,WaipioHawaii,21.4143,-157.9966
Yeadon,Pennsylvania,YeadonPennsylvania,39.9324,-75.2527
Citrus,California,CitrusCalifornia,34.1161,-117.889
Piedmont,California,PiedmontCalifornia,37.8226,-122.2301
Newman,California,NewmanCalifornia,37.3157,-121.0211
View Park-Windsor Hills,California,View Park-Windsor HillsCalifornia,33.9955,-118.3484
Summit,Illinois,SummitIllinois,41.7877,-87.8146
Richmond Heights,Florida,Richmond HeightsFlorida,25.6347,-80.372
Little Ferry,New Jersey,Little FerryNew Jersey,40.8463,-74.0388
Suffern,New York,SuffernNew York,41.1138,-74.1421
Rossmoor,California,RossmoorCalifornia,33.7886,-118.0803
North Lindenhurst,New York,North LindenhurstNew York,40.7072,-73.3859
Naranja,Florida,NaranjaFlorida,25.5164,-80.4221
Northbrook,Ohio,NorthbrookOhio,39.2466,-84.5795
Darby,Pennsylvania,DarbyPennsylvania,39.921,-75.2611
La Riviera,California,La RivieraCalifornia,38.5683,-121.3544
Jacinto City,Texas,Jacinto CityTexas,29.7663,-95.241
Timberlane,Louisiana,TimberlaneLouisiana,29.8781,-90.0303
Lansdowne,Pennsylvania,LansdownePennsylvania,39.9408,-75.276
West Perrine,Florida,West PerrineFlorida,25.6061,-80.3639
Del Aire,California,Del AireCalifornia,33.9168,-118.3693
East Whittier,California,East WhittierCalifornia,33.9244,-117.9887
Coral Hills,Maryland,Coral HillsMaryland,38.8709,-76.9234
Bound Brook,New Jersey,Bound BrookNew Jersey,40.5676,-74.5383
West Haverstraw,New York,West HaverstrawNew York,41.2063,-73.9883
Orange Cove,California,Orange CoveCalifornia,36.6211,-119.3188
Inwood,New York,InwoodNew York,40.6218,-73.7507
Great Neck,New York,Great NeckNew York,40.8029,-73.7332
Ventnor City,New Jersey,Ventnor CityNew Jersey,39.3457,-74.486
Maili,Hawaii,MailiHawaii,21.4134,-158.1702
Capitola,California,CapitolaCalifornia,36.9772,-121.9539
Watervliet,New York,WatervlietNew York,42.7243,-73.7068
New Hyde Park,New York,New Hyde ParkNew York,40.7324,-73.6857
Lincoln Village,Ohio,Lincoln VillageOhio,39.9532,-83.1314
East Rockaway,New York,East RockawayNew York,40.6432,-73.6672
Maywood,New Jersey,MaywoodNew Jersey,40.9025,-74.0634
North Kensington,Maryland,North KensingtonMaryland,39.0392,-77.0723
Keansburg,New Jersey,KeansburgNew Jersey,40.4469,-74.1316
Marina del Rey,California,Marina del ReyCalifornia,33.9765,-118.4486
Lake Stickney,Washington,Lake StickneyWashington,47.8709,-122.2596
Bristol,Pennsylvania,BristolPennsylvania,40.1028,-74.853
Brookdale,New Jersey,BrookdaleNew Jersey,40.8348,-74.1798
Charter Oak,California,Charter OakCalifornia,34.1025,-117.8564
Bladensburg,Maryland,BladensburgMaryland,38.9424,-76.9263
Woodlyn,Pennsylvania,WoodlynPennsylvania,39.8774,-75.3445
Brentwood,Pennsylvania,BrentwoodPennsylvania,40.3734,-79.9757
Derby,Colorado,DerbyColorado,39.8401,-104.9171
Aiea,Hawaii,AieaHawaii,21.3865,-157.9232
Leisure World,Maryland,Leisure WorldMaryland,39.1023,-77.0691
Westgate,Florida,WestgateFlorida,26.6994,-80.0989
Leonia,New Jersey,LeoniaNew Jersey,40.8638,-73.9899
Plainedge,New York,PlainedgeNew York,40.724,-73.477
Farmingdale,New York,FarmingdaleNew York,40.7328,-73.4465
Stony Brook University,New York,Stony Brook UniversityNew York,40.9099,-73.1213
Wood-Ridge,New Jersey,Wood-RidgeNew Jersey,40.8507,-74.0878
Boulder Hill,Illinois,Boulder HillIllinois,41.7112,-88.3353
South San Gabriel,California,South San GabrielCalifornia,34.0489,-118.0962
South Amboy,New Jersey,South AmboyNew Jersey,40.4852,-74.2831
Midway City,California,Midway CityCalifornia,33.7451,-117.9849
Collingdale,Pennsylvania,CollingdalePennsylvania,39.9151,-75.2776
Swissvale,Pennsylvania,SwissvalePennsylvania,40.4207,-79.8859
West Athens,California,West AthensCalifornia,33.9235,-118.3033
Audubon,New Jersey,AudubonNew Jersey,39.8906,-75.0722
Malverne,New York,MalverneNew York,40.6746,-73.6721
Folsom,Pennsylvania,FolsomPennsylvania,39.8924,-75.3286
Bogota,New Jersey,BogotaNew Jersey,40.8751,-74.0293
Harwood Heights,Illinois,Harwood HeightsIllinois,41.9663,-87.8057
Seven Corners,Virginia,Seven CornersVirginia,38.8658,-77.1445
Greenbriar,Virginia,GreenbriarVirginia,38.8717,-77.397
Haledon,New Jersey,HaledonNew Jersey,40.9363,-74.1887
New Square,New York,New SquareNew York,41.141,-74.0294
Dormont,Pennsylvania,DormontPennsylvania,40.3941,-80.0377
Four Corners,Maryland,Four CornersMaryland,39.0236,-77.0102
Garden City Park,New York,Garden City ParkNew York,40.7436,-73.6639
North Bay Village,Florida,North Bay VillageFlorida,25.8487,-80.1535
Cheviot,Ohio,CheviotOhio,39.1578,-84.6138
Temple Hills,Maryland,Temple HillsMaryland,38.8106,-76.9495
Bellevue,Pennsylvania,BellevuePennsylvania,40.4945,-80.055
Mount Rainier,Maryland,Mount RainierMaryland,38.9423,-76.9645
West Miami,Florida,West MiamiFlorida,25.7578,-80.2969
Maplewood,Missouri,MaplewoodMissouri,38.6121,-90.324
Ewa Villages,Hawaii,Ewa VillagesHawaii,21.3418,-158.039
Caldwell,New Jersey,CaldwellNew Jersey,40.839,-74.2776
Conshohocken,Pennsylvania,ConshohockenPennsylvania,40.0772,-75.3035
Rio Bravo,Texas,Rio BravoTexas,27.3648,-99.482
Riverside,New Jersey,RiversideNew Jersey,40.0358,-74.9564
Broadview Park,Florida,Broadview ParkFlorida,26.0979,-80.2088
August,California,AugustCalifornia,37.9796,-121.2625
Wilson,Pennsylvania,WilsonPennsylvania,40.6844,-75.2407
Fanwood,New Jersey,FanwoodNew Jersey,40.6417,-74.3857
Grandview Heights,Ohio,Grandview HeightsOhio,39.9793,-83.0409
Calumet Park,Illinois,Calumet ParkIllinois,41.665,-87.6578
Glen Ridge,New Jersey,Glen RidgeNew Jersey,40.8041,-74.2043
Hillcrest,New York,HillcrestNew York,41.1298,-74.035
Glenside,Pennsylvania,GlensidePennsylvania,40.1032,-75.1517
Holtville,California,HoltvilleCalifornia,32.8129,-115.3779
Park City,Illinois,Park CityIllinois,42.3522,-87.8915
Montpelier,Vermont,MontpelierVermont,44.2658,-72.5717
Waikele,Hawaii,WaikeleHawaii,21.4025,-158.0058
Alondra Park,California,Alondra ParkCalifornia,33.8885,-118.335
Hatboro,Pennsylvania,HatboroPennsylvania,40.1775,-75.1054
Dunellen,New Jersey,DunellenNew Jersey,40.5903,-74.4656
Guadalupe,California,GuadalupeCalifornia,34.9608,-120.5735
Williston Park,New York,Williston ParkNew York,40.7587,-73.6465
Baldwin Harbor,New York,Baldwin HarborNew York,40.6296,-73.6025
Boyes Hot Springs,California,Boyes Hot SpringsCalifornia,38.3126,-122.4888
Twin Rivers,New Jersey,Twin RiversNew Jersey,40.263,-74.4917
East Franklin,New Jersey,East FranklinNew Jersey,40.4933,-74.4711
Glenolden,Pennsylvania,GlenoldenPennsylvania,39.8996,-75.292
Orland Hills,Illinois,Orland HillsIllinois,41.5905,-87.8413
Nyack,New York,NyackNew York,41.0919,-73.9143
Ridley Park,Pennsylvania,Ridley ParkPennsylvania,39.8785,-75.3251
West Samoset,Florida,West SamosetFlorida,27.4703,-82.5552
Great Neck Plaza,New York,Great Neck PlazaNew York,40.7869,-73.7261
Pelham,New York,PelhamNew York,40.9117,-73.8075
Souderton,Pennsylvania,SoudertonPennsylvania,40.311,-75.3223
South Monrovia Island,California,South Monrovia IslandCalifornia,34.1234,-117.9958
South Valley Stream,New York,South Valley StreamNew York,40.6557,-73.7186
Forest Glen,Maryland,Forest GlenMaryland,39.0191,-77.0445
Lakeview,New York,LakeviewNew York,40.6775,-73.6493
Cedarhurst,New York,CedarhurstNew York,40.6252,-73.7278
Notre Dame,Indiana,Notre DameIndiana,41.7012,-86.2379
Manorhaven,New York,ManorhavenNew York,40.8399,-73.7127
Clifton Heights,Pennsylvania,Clifton HeightsPennsylvania,39.9301,-75.2958
Castroville,California,CastrovilleCalifornia,36.765,-121.7535
Tuckahoe,New York,TuckahoeNew York,40.953,-73.823
Folcroft,Pennsylvania,FolcroftPennsylvania,39.8891,-75.277
West View,Pennsylvania,West ViewPennsylvania,40.5182,-80.0333
Bronxville,New York,BronxvilleNew York,40.9394,-73.8263
Lauderdale-by-the-Sea,Florida,Lauderdale-by-the-SeaFlorida,26.199,-80.0972
Guadalupe,Arizona,GuadalupeArizona,33.3664,-111.9633
Ambler,Pennsylvania,AmblerPennsylvania,40.1565,-75.2215
Prospect Park,Pennsylvania,Prospect ParkPennsylvania,39.8858,-75.3074
Contra Costa Centre,California,Contra Costa CentreCalifornia,37.9261,-122.0539
Pleasure Point,California,Pleasure PointCalifornia,36.9618,-121.9715
Kingston Estates,New Jersey,Kingston EstatesNew Jersey,39.9188,-74.9898
Hewlett,New York,HewlettNew York,40.6422,-73.6942
Binghamton University,New York,Binghamton UniversityNew York,42.0893,-75.9684
Saranap,California,SaranapCalifornia,37.8878,-122.0761
Glenarden,Maryland,GlenardenMaryland,38.9293,-76.8576
Kennett Square,Pennsylvania,Kennett SquarePennsylvania,39.8438,-75.7113
Larchmont,New York,LarchmontNew York,40.9258,-73.7529
Naples Manor,Florida,Naples ManorFlorida,26.0892,-81.7254
Cameron Park,Texas,Cameron ParkTexas,25.9705,-97.4775
Fruitridge Pocket,California,Fruitridge PocketCalifornia,38.5326,-121.4558
Jamesburg,New Jersey,JamesburgNew Jersey,40.3494,-74.44
Elsmere,Delaware,ElsmereDelaware,39.7385,-75.5946
District Heights,Maryland,District HeightsMaryland,38.8588,-76.8885
Bay Harbor Islands,Florida,Bay Harbor IslandsFlorida,25.8878,-80.1335
Prospect Park,New Jersey,Prospect ParkNew Jersey,40.938,-74.1736
McKees Rocks,Pennsylvania,McKees RocksPennsylvania,40.4688,-80.063
Norwood,Pennsylvania,NorwoodPennsylvania,39.8864,-75.2964
Cutler,California,CutlerCalifornia,36.5263,-119.2883
Surfside,Florida,SurfsideFlorida,25.8787,-80.125
Mayflower Village,California,Mayflower VillageCalifornia,34.1159,-118.0096
Plymouth,Pennsylvania,PlymouthPennsylvania,41.2404,-75.9505
New Brighton,Pennsylvania,New BrightonPennsylvania,40.7355,-80.3091
Bellevue,Kentucky,BellevueKentucky,39.1011,-84.4776
Penn Wynne,Pennsylvania,Penn WynnePennsylvania,39.9867,-75.2715
Roseland,California,RoselandCalifornia,38.4178,-122.7298
Lewisburg,Pennsylvania,LewisburgPennsylvania,40.9642,-76.8901
Sharon Hill,Pennsylvania,Sharon HillPennsylvania,39.9075,-75.2678
Naval Academy,Maryland,Naval AcademyMaryland,38.9859,-76.488
Belmar,New Jersey,BelmarNew Jersey,40.1798,-74.0255
Deer Park,Ohio,Deer ParkOhio,39.2036,-84.3975
Rochelle Park,New Jersey,Rochelle ParkNew Jersey,40.9069,-74.0791
Mount Carmel,Pennsylvania,Mount CarmelPennsylvania,40.7959,-76.412
South Tucson,Arizona,South TucsonArizona,32.1955,-110.9692
Palm Springs North,Florida,Palm Springs NorthFlorida,25.9351,-80.3339
Paradise Hills,New Mexico,Paradise HillsNew Mexico,35.1982,-106.7024
Kensington,California,KensingtonCalifornia,37.9084,-122.2805
Twin Lakes,California,Twin LakesCalifornia,36.9646,-121.9896
Shaw Heights,Colorado,Shaw HeightsColorado,39.8566,-105.039
Waipio Acres,Hawaii,Waipio AcresHawaii,21.4689,-158.0173
Bret Harte,California,Bret HarteCalifornia,37.6021,-121.0045
Media,Pennsylvania,MediaPennsylvania,39.9198,-75.3888
Kaser,New York,KaserNew York,41.1213,-74.0685
Highwood,Illinois,HighwoodIllinois,42.206,-87.8129
Edgewater,Colorado,EdgewaterColorado,39.7507,-105.0626
South Highpoint,Florida,South HighpointFlorida,27.9087,-82.7162
Albertson,New York,AlbertsonNew York,40.7715,-73.6482
Shillington,Pennsylvania,ShillingtonPennsylvania,40.3029,-75.967
White City,Utah,White CityUtah,40.5666,-111.8636
Turtle Creek,Pennsylvania,Turtle CreekPennsylvania,40.4085,-79.8214
Tara Hills,California,Tara HillsCalifornia,37.9939,-122.3188
Glendale,Colorado,GlendaleColorado,39.7036,-104.9352
Mechanicville,New York,MechanicvilleNew York,42.9037,-73.6895
Mattawa,Washington,MattawaWashington,46.7364,-119.9019
South Pasadena,Florida,South PasadenaFlorida,27.7526,-82.7394
Hartsdale,New York,HartsdaleNew York,41.0153,-73.8036
Broadmoor,California,BroadmoorCalifornia,37.6914,-122.4811
Kenneth City,Florida,Kenneth CityFlorida,27.8155,-82.7162
Friendship Heights Village,Maryland,Friendship Heights VillageMaryland,38.9633,-77.09
Hartford,South Dakota,HartfordSouth Dakota,43.621,-96.9424
Dover,Pennsylvania,DoverPennsylvania,40.0033,-76.8484
Meridian,Idaho,MeridianIdaho,43.6112,-116.3968
San Angelo,Texas,San AngeloTexas,31.4426,-100.4501
Wichita Falls,Texas,Wichita FallsTexas,33.9072,-98.529
Lakewood,New Jersey,LakewoodNew Jersey,40.0763,-74.2031
Longmont,Colorado,LongmontColorado,40.169,-105.0996
Manteca,California,MantecaCalifornia,37.7934,-121.2266
Boca Raton,Florida,Boca RatonFlorida,26.3749,-80.1077
Spokane Valley,Washington,Spokane ValleyWashington,47.6625,-117.2346
Middletown,Ohio,MiddletownOhio,39.5032,-84.366
Idaho Falls,Idaho,Idaho FallsIdaho,43.4872,-112.0363
Beaverton,Oregon,BeavertonOregon,45.4779,-122.8168
Lawrence,Kansas,LawrenceKansas,38.9598,-95.2641
Prescott Valley,Arizona,Prescott ValleyArizona,34.5982,-112.3178
Greece,New York,GreeceNew York,43.2461,-77.6989
Federal Way,Washington,Federal WayWashington,47.309,-122.3359
San Marcos,California,San MarcosCalifornia,33.135,-117.1743
Rio Rancho,New Mexico,Rio RanchoNew Mexico,35.2872,-106.6981
Sandy,Utah,SandyUtah,40.5706,-111.851
Tracy,California,TracyCalifornia,37.726,-121.444
Brockton,Massachusetts,BrocktonMassachusetts,42.0821,-71.0242
Hesperia,California,HesperiaCalifornia,34.3975,-117.3147
Roswell,Georgia,RoswellGeorgia,34.0391,-84.3513
Mandeville,Louisiana,MandevilleLouisiana,30.375,-90.0906
Vineland,New Jersey,VinelandNew Jersey,39.4653,-74.9981
Portsmouth,Virginia,PortsmouthVirginia,36.8468,-76.354
Dearborn,Michigan,DearbornMichigan,42.3127,-83.2129
Livonia,Michigan,LivoniaMichigan,42.3972,-83.3733
Plantation,Florida,PlantationFlorida,26.126,-80.2617
Slidell,Louisiana,SlidellLouisiana,30.2881,-89.7826
Carson,California,CarsonCalifornia,33.8374,-118.2559
Terre Haute,Indiana,Terre HauteIndiana,39.4654,-87.3763
Blacksburg,Virginia,BlacksburgVirginia,37.23,-80.4279
Portsmouth,New Hampshire,PortsmouthNew Hampshire,43.058,-70.7826
Dover,New Hampshire,DoverNew Hampshire,43.1887,-70.8845
Carmel,Indiana,CarmelIndiana,39.9658,-86.1461
Hanford,California,HanfordCalifornia,36.3264,-119.6544
Lafayette,Colorado,LafayetteColorado,39.9949,-105.0997
Edmond,Oklahoma,EdmondOklahoma,35.6689,-97.4159
Fishers,Indiana,FishersIndiana,39.9589,-85.9665
Greenburgh,New York,GreenburghNew York,41.033,-73.8413
Toms River,New Jersey,Toms RiverNew Jersey,39.9895,-74.1652
Lawton,Oklahoma,LawtonOklahoma,34.6176,-98.4203
Florence,South Carolina,FlorenceSouth Carolina,34.1782,-79.7872
Livermore,California,LivermoreCalifornia,37.6861,-121.7608
San Tan Valley,Arizona,San Tan ValleyArizona,33.1879,-111.5473
Lee's Summit,Missouri,Lee's SummitMissouri,38.9172,-94.3816
Menifee,California,MenifeeCalifornia,33.6909,-117.1849
Albany,Georgia,AlbanyGeorgia,31.5776,-84.1762
Bowling Green,Kentucky,Bowling GreenKentucky,36.9715,-86.4375
Edinburg,Texas,EdinburgTexas,26.3197,-98.1596
Suffolk,Virginia,SuffolkVirginia,36.6953,-76.6398
Missoula,Montana,MissoulaMontana,46.8685,-114.0095
Chino,California,ChinoCalifornia,33.9836,-117.6654
Auburn,Alabama,AuburnAlabama,32.6087,-85.4899
Fall River,Massachusetts,Fall RiverMassachusetts,41.7137,-71.1014
Hamilton,New Jersey,HamiltonNew Jersey,40.2046,-74.6765
Norwalk,Connecticut,NorwalkConnecticut,41.1144,-73.4215
Decatur,Illinois,DecaturIllinois,39.8556,-88.9337
Newton,Massachusetts,NewtonMassachusetts,42.3316,-71.2085
Rapid City,South Dakota,Rapid CitySouth Dakota,44.0716,-103.2205
Muncie,Indiana,MuncieIndiana,40.1989,-85.395
Kirkland,Washington,KirklandWashington,47.6997,-122.2041
Sugar Land,Texas,Sugar LandTexas,29.5935,-95.6357
Riverview,Florida,RiverviewFlorida,27.8227,-82.3023
Alafaya,Florida,AlafayaFlorida,28.5278,-81.1865
Jackson,Michigan,JacksonMichigan,42.2431,-84.4037
Waukegan,Illinois,WaukeganIllinois,42.3697,-87.8716
O'Fallon,Missouri,O'FallonMissouri,38.7851,-90.7177
Cheektowaga,New York,CheektowagaNew York,42.9082,-78.7466
Clarkstown,New York,ClarkstownNew York,41.1319,-73.966
Napa,California,NapaCalifornia,38.2976,-122.3011
Dalton,Georgia,DaltonGeorgia,34.7691,-84.9712
Redwood City,California,Redwood CityCalifornia,37.5026,-122.2252
Mount Pleasant,South Carolina,Mount PleasantSouth Carolina,32.8533,-79.8269
Anderson,Indiana,AndersonIndiana,40.0874,-85.692
Joplin,Missouri,JoplinMissouri,37.0759,-94.5006
Newport Beach,California,Newport BeachCalifornia,33.6151,-117.8669
Bloomington,Minnesota,BloomingtonMinnesota,44.8306,-93.3151
Hoover,Alabama,HooverAlabama,33.3754,-86.8065
Largo,Florida,LargoFlorida,27.9088,-82.7712
Mission,Texas,MissionTexas,26.204,-98.3251
Conroe,Texas,ConroeTexas,30.3224,-95.482
Johns Creek,Georgia,Johns CreekGeorgia,34.0333,-84.2026
Lake Forest,California,Lake ForestCalifornia,33.6606,-117.6712
Bryan,Texas,BryanTexas,30.6657,-96.3668
Town 'n' Country,Florida,Town 'n' CountryFlorida,28.0108,-82.576
Port Huron,Michigan,Port HuronMichigan,42.9822,-82.4387
Troy,Michigan,TroyMichigan,42.5818,-83.1457
Madera,California,MaderaCalifornia,36.964,-120.0803
Springfield,Ohio,SpringfieldOhio,39.9297,-83.7957
Pleasanton,California,PleasantonCalifornia,37.6663,-121.8805
Alexandria,Louisiana,AlexandriaLouisiana,31.2923,-92.4702
Melbourne,Florida,MelbourneFlorida,28.1085,-80.6627
Westland,Michigan,WestlandMichigan,42.3192,-83.3805
Cranston,Rhode Island,CranstonRhode Island,41.7658,-71.4858
Farmington Hills,Michigan,Farmington HillsMichigan,42.486,-83.3771
Hattiesburg,Mississippi,HattiesburgMississippi,31.3074,-89.317
Warwick,Rhode Island,WarwickRhode Island,41.7062,-71.4334
Williamsburg,Virginia,WilliamsburgVirginia,37.2692,-76.7076
St. Joseph,Missouri,St. JosephMissouri,39.7598,-94.821
Auburn,Washington,AuburnWashington,47.3041,-122.211
Brooklyn Park,Minnesota,Brooklyn ParkMinnesota,45.1112,-93.3505
Alton,Illinois,AltonIllinois,38.9033,-90.1523
Chino Hills,California,Chino HillsCalifornia,33.9507,-117.7253
Texarkana,Texas,TexarkanaTexas,33.4487,-94.0815
Fort Myers,Florida,Fort MyersFlorida,26.6195,-81.8303
Goodyear,Arizona,GoodyearArizona,33.2614,-112.3622
Springdale,Arkansas,SpringdaleArkansas,36.1898,-94.1573
Pharr,Texas,PharrTexas,26.1685,-98.1904
Valdosta,Georgia,ValdostaGeorgia,30.8502,-83.2788
Parma,Ohio,ParmaOhio,41.3843,-81.7286
New Braunfels,Texas,New BraunfelsTexas,29.6997,-98.1148
Kokomo,Indiana,KokomoIndiana,40.464,-86.1277
Newark,Ohio,NewarkOhio,40.0705,-82.4251
Flagstaff,Arizona,FlagstaffArizona,35.1872,-111.6195
Plymouth,Minnesota,PlymouthMinnesota,45.0224,-93.4615
Franklin,Tennessee,FranklinTennessee,35.9216,-86.8525
Florence,Alabama,FlorenceAlabama,34.8303,-87.6654
Folsom,California,FolsomCalifornia,38.6669,-121.1422
Kankakee,Illinois,KankakeeIllinois,41.102,-87.8643
Perris,California,PerrisCalifornia,33.7899,-117.2233
Boynton Beach,Florida,Boynton BeachFlorida,26.5281,-80.0811
Anderson,South Carolina,AndersonSouth Carolina,34.5212,-82.6478
Elizabethtown,Kentucky,ElizabethtownKentucky,37.703,-85.8769
Wheeling,West Virginia,WheelingWest Virginia,40.0751,-80.6951
Upland,California,UplandCalifornia,34.1178,-117.6604
Baytown,Texas,BaytownTexas,29.7586,-94.9669
Battle Creek,Michigan,Battle CreekMichigan,42.2986,-85.2296
Porterville,California,PortervilleCalifornia,36.0644,-119.0338
Loveland,Colorado,LovelandColorado,40.4167,-105.0622
Layton,Utah,LaytonUtah,41.0771,-111.9622
Flower Mound,Texas,Flower MoundTexas,33.0344,-97.1147
Hammond,Indiana,HammondIndiana,41.6169,-87.4909
Lake Jackson,Texas,Lake JacksonTexas,29.0516,-95.4521
Zephyrhills,Florida,ZephyrhillsFlorida,28.2405,-82.1796
Altoona,Pennsylvania,AltoonaPennsylvania,40.5082,-78.4007
Gary,Indiana,GaryIndiana,41.5906,-87.3472
Wyoming,Michigan,WyomingMichigan,42.8909,-85.7066
St. Augustine,Florida,St. AugustineFlorida,29.8977,-81.31
San Ramon,California,San RamonCalifornia,37.7625,-121.9365
Bethlehem,Pennsylvania,BethlehemPennsylvania,40.6266,-75.3679
Cedar Park,Texas,Cedar ParkTexas,30.5105,-97.8197
Arlington Heights,Illinois,Arlington HeightsIllinois,42.0956,-87.9825
Union City,California,Union CityCalifornia,37.603,-122.0187
Bolingbrook,Illinois,BolingbrookIllinois,41.6903,-88.1019
Anniston,Alabama,AnnistonAlabama,33.6713,-85.8136
Oshkosh,Wisconsin,OshkoshWisconsin,44.0228,-88.5617
Kendall,Florida,KendallFlorida,25.6697,-80.3556
Brick,New Jersey,BrickNew Jersey,40.06,-74.1098
Atascocita,Texas,AtascocitaTexas,29.9777,-95.1953
Camarillo,California,CamarilloCalifornia,34.223,-119.0322
The Villages,Florida,The VillagesFlorida,28.9021,-81.9888
Hilton Head Island,South Carolina,Hilton Head IslandSouth Carolina,32.1896,-80.7499
Missouri City,Texas,Missouri CityTexas,29.563,-95.5365
San Marcos,Texas,San MarcosTexas,29.8736,-97.938
Rochester Hills,Michigan,Rochester HillsMichigan,42.6645,-83.1563
Schaumburg,Illinois,SchaumburgIllinois,42.0307,-88.0838
Winchester,Virginia,WinchesterVirginia,39.1735,-78.1746
Harrisonburg,Virginia,HarrisonburgVirginia,38.4362,-78.8735
Wausau,Wisconsin,WausauWisconsin,44.9615,-89.6457
Jonesboro,Arkansas,JonesboroArkansas,35.8211,-90.6793
Jackson,Tennessee,JacksonTennessee,35.6536,-88.8353
Rancho Cordova,California,Rancho CordovaCalifornia,38.574,-121.2523
Dale City,Virginia,Dale CityVirginia,38.6473,-77.3459
Waldorf,Maryland,WaldorfMaryland,38.6085,-76.9195
Southfield,Michigan,SouthfieldMichigan,42.4765,-83.2605
Owensboro,Kentucky,OwensboroKentucky,37.7573,-87.1174
Apple Valley,California,Apple ValleyCalifornia,34.5328,-117.2104
Pasco,Washington,PascoWashington,46.2506,-119.1303
Conway,Arkansas,ConwayArkansas,35.0753,-92.4695
Lodi,California,LodiCalifornia,38.1218,-121.2933
Mansfield,Ohio,MansfieldOhio,40.7656,-82.5275
Waukesha,Wisconsin,WaukeshaWisconsin,43.0087,-88.2464
Morgantown,West Virginia,MorgantownWest Virginia,39.6379,-79.9468
Pittsburg,California,PittsburgCalifornia,38.0185,-121.897
Sumter,South Carolina,SumterSouth Carolina,33.9392,-80.393
Cleveland,Tennessee,ClevelandTennessee,35.1818,-84.8707
Ellicott City,Maryland,Ellicott CityMaryland,39.2773,-76.8344
Dothan,Alabama,DothanAlabama,31.2335,-85.4068
Redlands,California,RedlandsCalifornia,34.0511,-117.1712
Wenatchee,Washington,WenatcheeWashington,47.4338,-120.3286
Framingham,Massachusetts,FraminghamMassachusetts,42.3085,-71.4368
Cherry Hill,New Jersey,Cherry HillNew Jersey,39.9034,-74.9947
Maple Grove,Minnesota,Maple GroveMinnesota,45.1089,-93.4626
Pocatello,Idaho,PocatelloIdaho,42.8716,-112.4652
South Jordan,Utah,South JordanUtah,40.5571,-111.9783
Weston,Florida,WestonFlorida,26.1007,-80.4054
Georgetown,Texas,GeorgetownTexas,30.6668,-97.6953
Janesville,Wisconsin,JanesvilleWisconsin,42.6855,-89.0136
North Richland Hills,Texas,North Richland HillsTexas,32.8605,-97.218
St. Charles,Missouri,St. CharlesMissouri,38.7956,-90.5156
Sheboygan,Wisconsin,SheboyganWisconsin,43.7403,-87.7316
Homestead,Florida,HomesteadFlorida,25.4665,-80.4472
Bristol,Tennessee,BristolTennessee,36.5572,-82.2154
Lima,Ohio,LimaOhio,40.741,-84.1121
Walnut Creek,California,Walnut CreekCalifornia,37.9025,-122.0398
Woodbury,Minnesota,WoodburyMinnesota,44.9056,-92.923
El Paso de Robles,California,El Paso de RoblesCalifornia,35.6394,-120.656
West Bend,Wisconsin,West BendWisconsin,43.4184,-88.1823
Mount Vernon,Washington,Mount VernonWashington,48.4202,-122.3116
Hammond,Louisiana,HammondLouisiana,30.5061,-90.4563
Daphne,Alabama,DaphneAlabama,30.6286,-87.8866
Mansfield,Texas,MansfieldTexas,32.569,-97.1211
Casas Adobes,Arizona,Casas AdobesArizona,32.3423,-111.0114
Decatur,Alabama,DecaturAlabama,34.573,-86.9905
Glen Burnie,Maryland,Glen BurnieMaryland,39.1559,-76.6072
Delray Beach,Florida,Delray BeachFlorida,26.455,-80.0905
Palatine,Illinois,PalatineIllinois,42.1181,-88.043
Dubuque,Iowa,DubuqueIowa,42.5007,-90.7067
Bossier City,Louisiana,Bossier CityLouisiana,32.5227,-93.6667
Buckeye,Arizona,BuckeyeArizona,33.4314,-112.6429
Rockville,Maryland,RockvilleMaryland,39.0834,-77.1553
Broomfield,Colorado,BroomfieldColorado,39.9541,-105.0527
Victoria,Texas,VictoriaTexas,28.8285,-96.985
Yorba Linda,California,Yorba LindaCalifornia,33.889,-117.7713
Ames,Iowa,AmesIowa,42.0258,-93.6216
Daytona Beach,Florida,Daytona BeachFlorida,29.1994,-81.0982
Carbondale,Illinois,CarbondaleIllinois,37.722,-89.2238
Hanover,Pennsylvania,HanoverPennsylvania,39.8117,-76.9835
Saratoga Springs,New York,Saratoga SpringsNew York,43.0674,-73.7775
DeKalb,Illinois,DeKalbIllinois,41.9314,-88.7482
Casper,Wyoming,CasperWyoming,42.842,-106.3207
Kenner,Louisiana,KennerLouisiana,30.0109,-90.2549
Sherman,Texas,ShermanTexas,33.6266,-96.6195
Petaluma,California,PetalumaCalifornia,38.2423,-122.6267
Palo Alto,California,Palo AltoCalifornia,37.3913,-122.1467
Weirton,West Virginia,WeirtonWest Virginia,40.406,-80.5671
Bay City,Michigan,Bay CityMichigan,43.5903,-83.8886
Old Bridge,New Jersey,Old BridgeNew Jersey,40.4004,-74.3126
Eagan,Minnesota,EaganMinnesota,44.8169,-93.1638
Los Lunas,New Mexico,Los LunasNew Mexico,34.8115,-106.7803
Poinciana,Florida,PoincianaFlorida,28.1217,-81.482
Corvallis,Oregon,CorvallisOregon,44.5696,-123.2781
Rogers,Arkansas,RogersArkansas,36.3172,-94.1518
Lake Elsinore,California,Lake ElsinoreCalifornia,33.6846,-117.3344
Laguna Niguel,California,Laguna NiguelCalifornia,33.5275,-117.705
Grand Forks,North Dakota,Grand ForksNorth Dakota,47.9221,-97.0887
Middletown,New Jersey,MiddletownNew Jersey,40.3897,-74.0813
North Little Rock,Arkansas,North Little RockArkansas,34.7807,-92.2372
Alpharetta,Georgia,AlpharettaGeorgia,34.0703,-84.2738
Great Falls,Montana,Great FallsMontana,47.5022,-111.2995
Longview,Washington,LongviewWashington,46.146,-122.963
West Des Moines,Iowa,West Des MoinesIowa,41.5522,-93.7805
Shawnee,Kansas,ShawneeKansas,39.0158,-94.8076
San Clemente,California,San ClementeCalifornia,33.4498,-117.6103
Michigan City,Indiana,Michigan CityIndiana,41.7098,-86.8705
Carmichael,California,CarmichaelCalifornia,38.6337,-121.323
Jupiter,Florida,JupiterFlorida,26.9199,-80.1128
Wellington,Florida,WellingtonFlorida,26.6464,-80.2706
Rocklin,California,RocklinCalifornia,38.8075,-121.2488
Rocky Mount,North Carolina,Rocky MountNorth Carolina,35.9676,-77.8047
Fairbanks,Alaska,FairbanksAlaska,64.8353,-147.6534
Elmira,New York,ElmiraNew York,42.0938,-76.8097
Johnstown,Pennsylvania,JohnstownPennsylvania,40.3258,-78.9194
Blaine,Minnesota,BlaineMinnesota,45.1696,-93.2078
Sammamish,Washington,SammamishWashington,47.6019,-122.0419
Eden Prairie,Minnesota,Eden PrairieMinnesota,44.8488,-93.4595
Redmond,Washington,RedmondWashington,47.6762,-122.1169
Glens Falls,New York,Glens FallsNew York,43.3109,-73.6459
Parkersburg,West Virginia,ParkersburgWest Virginia,39.2624,-81.5419
Gloucester,New Jersey,GloucesterNew Jersey,39.7924,-75.0363
Tulare,California,TulareCalifornia,36.1996,-119.3401
Lakeville,Minnesota,LakevilleMinnesota,44.6776,-93.2521
Haverhill,Massachusetts,HaverhillMassachusetts,42.7838,-71.0871
Castro Valley,California,Castro ValleyCalifornia,37.7092,-122.0632
Beloit,Wisconsin,BeloitWisconsin,42.523,-89.0184
West Hartford,Connecticut,West HartfordConnecticut,41.7669,-72.7536
Pflugerville,Texas,PflugervilleTexas,30.4525,-97.602
Eastvale,California,EastvaleCalifornia,33.9617,-117.5802
Port Orange,Florida,Port OrangeFlorida,29.1084,-81.0137
Encinitas,California,EncinitasCalifornia,33.049,-117.2613
Bethesda,Maryland,BethesdaMaryland,38.9866,-77.1188
Rowlett,Texas,RowlettTexas,32.9157,-96.5488
Monessen,Pennsylvania,MonessenPennsylvania,40.1519,-79.8828
Sebring,Florida,SebringFlorida,27.477,-81.453
Greenwich,Connecticut,GreenwichConnecticut,41.0665,-73.6368
Lehi,Utah,LehiUtah,40.4137,-111.8726
Coon Rapids,Minnesota,Coon RapidsMinnesota,45.1755,-93.3095
Dundalk,Maryland,DundalkMaryland,39.2703,-76.4942
Waltham,Massachusetts,WalthamMassachusetts,42.3889,-71.2423
Brentwood,California,BrentwoodCalifornia,37.9356,-121.719
Ankeny,Iowa,AnkenyIowa,41.7284,-93.6034
San Luis Obispo,California,San Luis ObispoCalifornia,35.267,-120.6689
Springfield,Oregon,SpringfieldOregon,44.0538,-122.981
Council Bluffs,Iowa,Council BluffsIowa,41.2369,-95.8518
Castle Rock,Colorado,Castle RockColorado,39.3762,-104.8535
Hamilton,Ohio,HamiltonOhio,39.3938,-84.5652
Mankato,Minnesota,MankatoMinnesota,44.1711,-93.9773
Noblesville,Indiana,NoblesvilleIndiana,40.0356,-86.0066
Gadsden,Alabama,GadsdenAlabama,34.009,-86.0156
Fairfield,Connecticut,FairfieldConnecticut,41.1775,-73.2733
Palm Harbor,Florida,Palm HarborFlorida,28.0847,-82.7481
Moore,Oklahoma,MooreOklahoma,35.3293,-97.4757
Hamden,Connecticut,HamdenConnecticut,41.3961,-72.9215
Burnsville,Minnesota,BurnsvilleMinnesota,44.7648,-93.2795
Taylor,Michigan,TaylorMichigan,42.226,-83.2688
Doral,Florida,DoralFlorida,25.8151,-80.3565
Marietta,Georgia,MariettaGeorgia,33.9532,-84.5422
Rome,Georgia,RomeGeorgia,34.2662,-85.1862
Dublin,California,DublinCalifornia,37.7161,-121.8964
Albany,Oregon,AlbanyOregon,44.6275,-123.0966
Reston,Virginia,RestonVirginia,38.9497,-77.3461
Morristown,Tennessee,MorristownTennessee,36.2047,-83.3005
Lakewood,Washington,LakewoodWashington,47.1628,-122.5299
Bristol,Connecticut,BristolConnecticut,41.6812,-72.9407
Millcreek,Utah,MillcreekUtah,40.6892,-111.8291
Woodland,California,WoodlandCalifornia,38.6712,-121.75
Benton Harbor,Michigan,Benton HarborMichigan,42.1159,-86.4488
Meriden,Connecticut,MeridenConnecticut,41.5367,-72.7944
Chapel Hill,North Carolina,Chapel HillNorth Carolina,35.927,-79.0391
Pontiac,Michigan,PontiacMichigan,42.6493,-83.2878
Novi,Michigan,NoviMichigan,42.4786,-83.4893
Port Charlotte,Florida,Port CharlotteFlorida,26.9918,-82.114
St. Clair Shores,Michigan,St. Clair ShoresMichigan,42.4921,-82.8957
Beckley,West Virginia,BeckleyWest Virginia,37.7877,-81.184
Clay,New York,ClayNew York,43.1809,-76.1955
Sanford,Florida,SanfordFlorida,28.7893,-81.276
Midland,Michigan,MidlandMichigan,43.6239,-84.2316
Royal Oak,Michigan,Royal OakMichigan,42.5084,-83.1539
Bangor,Maine,BangorMaine,44.8322,-68.7906
Bartlett,Tennessee,BartlettTennessee,35.2337,-89.8195
San Rafael,California,San RafaelCalifornia,37.9904,-122.5222
Goldsboro,North Carolina,GoldsboroNorth Carolina,35.3777,-77.972
Bowie,Maryland,BowieMaryland,38.9574,-76.7422
Lewiston,Maine,LewistonMaine,44.0915,-70.1681
Columbus,Indiana,ColumbusIndiana,39.2094,-85.9183
Towson,Maryland,TowsonMaryland,39.3944,-76.619
Orland Park,Illinois,Orland ParkIllinois,41.6075,-87.8619
Plymouth,Massachusetts,PlymouthMassachusetts,41.8783,-70.6309
Casa Grande,Arizona,Casa GrandeArizona,32.9068,-111.7624
Staunton,Virginia,StauntonVirginia,38.1593,-79.0611
Des Plaines,Illinois,Des PlainesIllinois,42.0344,-87.9008
Manchester,Connecticut,ManchesterConnecticut,41.7753,-72.5242
Santee,California,SanteeCalifornia,32.8554,-116.9851
Spring,Texas,SpringTexas,30.0613,-95.383
Hot Springs,Arkansas,Hot SpringsArkansas,34.4902,-93.0498
Walla Walla,Washington,Walla WallaWashington,46.0669,-118.3365
Piscataway,New Jersey,PiscatawayNew Jersey,40.5467,-74.4636
Hendersonville,Tennessee,HendersonvilleTennessee,36.3063,-86.5998
Titusville,Florida,TitusvilleFlorida,28.5727,-80.8193
Greenwood,Indiana,GreenwoodIndiana,39.6019,-86.1073
Midwest City,Oklahoma,Midwest CityOklahoma,35.463,-97.3709
Manhattan,Kansas,ManhattanKansas,39.1885,-96.6047
St. Peters,Missouri,St. PetersMissouri,38.7825,-90.6061
Taunton,Massachusetts,TauntonMassachusetts,41.9036,-71.0943
East Stroudsburg,Pennsylvania,East StroudsburgPennsylvania,41.0023,-75.1779
Smyrna,Georgia,SmyrnaGeorgia,33.8633,-84.5168
Tinley Park,Illinois,Tinley ParkIllinois,41.567,-87.805
Diamond Bar,California,Diamond BarCalifornia,33.9991,-117.8161
Weymouth Town,Massachusetts,Weymouth TownMassachusetts,42.1984,-70.9466
Bradenton,Florida,BradentonFlorida,27.49,-82.574
Jackson,New Jersey,JacksonNew Jersey,40.098,-74.3579
South Hill,Washington,South HillWashington,47.1203,-122.2848
Pittsfield,Massachusetts,PittsfieldMassachusetts,42.4517,-73.2605
Richland,Washington,RichlandWashington,46.2826,-119.2937
Huntersville,North Carolina,HuntersvilleNorth Carolina,35.4057,-80.8729
Shoreline,Washington,ShorelineWashington,47.7564,-122.3426
Novato,California,NovatoCalifornia,38.092,-122.5576
Commerce City,Colorado,Commerce CityColorado,39.8643,-104.8433
Cartersville,Georgia,CartersvilleGeorgia,34.1632,-84.8007
Dearborn Heights,Michigan,Dearborn HeightsMichigan,42.3164,-83.2769
Kingston,New York,KingstonNew York,41.9295,-73.9968
Chicopee,Massachusetts,ChicopeeMassachusetts,42.1764,-72.5719
Hazleton,Pennsylvania,HazletonPennsylvania,40.9504,-75.9724
Highland,California,HighlandCalifornia,34.1113,-117.1654
Lake Havasu City,Arizona,Lake Havasu CityArizona,34.5006,-114.3113
Kettering,Ohio,KetteringOhio,39.6957,-84.1496
Euless,Texas,EulessTexas,32.8508,-97.0799
Wayne,New Jersey,WayneNew Jersey,40.9481,-74.2453
Palm Beach Gardens,Florida,Palm Beach GardensFlorida,26.8486,-80.166
Watertown,New York,WatertownNew York,43.9734,-75.9095
Grants Pass,Oregon,Grants PassOregon,42.4333,-123.3316
Blue Springs,Missouri,Blue SpringsMissouri,39.0123,-94.2722
West Haven,Connecticut,West HavenConnecticut,41.2739,-72.9672
Colton,California,ColtonCalifornia,34.0538,-117.3254
Union,New York,UnionNew York,42.1258,-76.0329
Caldwell,Idaho,CaldwellIdaho,43.6454,-116.6599
Fond du Lac,Wisconsin,Fond du LacWisconsin,43.7718,-88.4397
Arroyo Grande,California,Arroyo GrandeCalifornia,35.1242,-120.5845
Cathedral City,California,Cathedral CityCalifornia,33.8363,-116.4642
Cape Girardeau,Missouri,Cape GirardeauMissouri,37.3108,-89.5596
Delano,California,DelanoCalifornia,35.767,-119.2637
Stonecrest,Georgia,StonecrestGeorgia,33.6843,-84.1373
Twin Falls,Idaho,Twin FallsIdaho,42.5648,-114.4617
Williamsport,Pennsylvania,WilliamsportPennsylvania,41.2398,-77.0371
Eagle Pass,Texas,Eagle PassTexas,28.7125,-100.484
Normal,Illinois,NormalIllinois,40.522,-88.9877
Leesburg,Virginia,LeesburgVirginia,39.1058,-77.5544
Beaufort,South Carolina,BeaufortSouth Carolina,32.4606,-80.7245
Parker,Colorado,ParkerColorado,39.5084,-104.7755
Hacienda Heights,California,Hacienda HeightsCalifornia,33.997,-117.9728
Southaven,Mississippi,SouthavenMississippi,34.9514,-89.9787
Brunswick,Georgia,BrunswickGeorgia,31.145,-81.474
Grapevine,Texas,GrapevineTexas,32.9343,-97.0744
Bozeman,Montana,BozemanMontana,45.6828,-111.0549
Mount Prospect,Illinois,Mount ProspectIllinois,42.0641,-87.9375
Elyria,Ohio,ElyriaOhio,41.3761,-82.1063
Yucaipa,California,YucaipaCalifornia,34.0336,-117.043
DeSoto,Texas,DeSotoTexas,32.5992,-96.8633
Lenexa,Kansas,LenexaKansas,38.9609,-94.8018
Brookhaven,Georgia,BrookhavenGeorgia,33.8744,-84.3314
West Sacramento,California,West SacramentoCalifornia,38.5557,-121.5504
Parsippany-Troy Hills,New Jersey,Parsippany-Troy HillsNew Jersey,40.8601,-74.4238
Lewiston,Idaho,LewistonIdaho,46.3934,-116.9934
Bellevue,Nebraska,BellevueNebraska,41.1536,-95.9357
Grand Island,Nebraska,Grand IslandNebraska,40.9214,-98.3584
Wesley Chapel,Florida,Wesley ChapelFlorida,28.2106,-82.3238
Wheaton,Illinois,WheatonIllinois,41.8561,-88.1083
Tigard,Oregon,TigardOregon,45.4237,-122.7845
Minnetonka,Minnesota,MinnetonkaMinnesota,44.9332,-93.4617
Peabody,Massachusetts,PeabodyMassachusetts,42.5335,-70.9724
Milford city ,Connecticut,Milford city Connecticut,41.2255,-73.0625
Palm Desert,California,Palm DesertCalifornia,33.7378,-116.3695
Lompoc,California,LompocCalifornia,34.6618,-120.4714
Pinellas Park,Florida,Pinellas ParkFlorida,27.8589,-82.7076
Farmington,New Mexico,FarmingtonNew Mexico,36.7555,-108.1823
Stratford,Connecticut,StratfordConnecticut,41.207,-73.1305
Glendora,California,GlendoraCalifornia,34.1449,-117.8467
Apple Valley,Minnesota,Apple ValleyMinnesota,44.7457,-93.2006
Chambersburg,Pennsylvania,ChambersburgPennsylvania,39.9315,-77.6556
Howell,New Jersey,HowellNew Jersey,40.1819,-74.1977
Edina,Minnesota,EdinaMinnesota,44.8914,-93.3602
Levittown,Pennsylvania,LevittownPennsylvania,40.1537,-74.853
Kentwood,Michigan,KentwoodMichigan,42.8852,-85.5925
Burien,Washington,BurienWashington,47.4762,-122.3393
Sierra Vista,Arizona,Sierra VistaArizona,31.563,-110.3153
Hoffman Estates,Illinois,Hoffman EstatesIllinois,42.0639,-88.1468
Apopka,Florida,ApopkaFlorida,28.7013,-81.5303
Florissant,Missouri,FlorissantMissouri,38.7996,-90.3269
Bloomsburg,Pennsylvania,BloomsburgPennsylvania,41.0026,-76.4561
St. Cloud,Florida,St. CloudFlorida,28.2294,-81.2829
Coral Gables,Florida,Coral GablesFlorida,25.7037,-80.2715
Hinesville,Georgia,HinesvilleGeorgia,31.8247,-81.6135
Irondequoit,New York,IrondequoitNew York,43.2096,-77.5705
East Hartford,Connecticut,East HartfordConnecticut,41.7634,-72.6152
New Bern,North Carolina,New BernNorth Carolina,35.0955,-77.0723
Rowland Heights,California,Rowland HeightsCalifornia,33.9716,-117.8911
Apex,North Carolina,ApexNorth Carolina,35.7246,-78.8698
Summerville,South Carolina,SummervilleSouth Carolina,33.0016,-80.1795
Orangetown,New York,OrangetownNew York,41.0526,-73.9475
Collierville,Tennessee,ColliervilleTennessee,35.0471,-89.6988
Methuen Town,Massachusetts,Methuen TownMassachusetts,42.734,-71.1889
Catalina Foothills,Arizona,Catalina FoothillsArizona,32.3041,-110.8835
Poway,California,PowayCalifornia,32.9872,-117.0201
Smyrna,Tennessee,SmyrnaTennessee,35.9722,-86.5253
Ashburn,Virginia,AshburnVirginia,39.03,-77.4711
Minot,North Dakota,MinotNorth Dakota,48.2374,-101.278
Azusa,California,AzusaCalifornia,34.1386,-117.9124
Wylie,Texas,WylieTexas,33.0362,-96.5161
Traverse City,Michigan,Traverse CityMichigan,44.7547,-85.6035
Lacey,Washington,LaceyWashington,47.0458,-122.7934
Dunwoody,Georgia,DunwoodyGeorgia,33.9418,-84.3122
Troy,New York,TroyNew York,42.7354,-73.6751
Downers Grove,Illinois,Downers GroveIllinois,41.7949,-88.017
Bullhead City,Arizona,Bullhead CityArizona,35.1205,-114.546
Bedford,Texas,BedfordTexas,32.8464,-97.135
Wilson,North Carolina,WilsonNorth Carolina,35.7312,-77.9284
Bentonville,Arkansas,BentonvilleArkansas,36.355,-94.2299
Murray,Utah,MurrayUtah,40.6498,-111.8874
Cuyahoga Falls,Ohio,Cuyahoga FallsOhio,41.1641,-81.5207
Leander,Texas,LeanderTexas,30.5728,-97.8633
Mishawaka,Indiana,MishawakaIndiana,41.6736,-86.1669
Roswell,New Mexico,RoswellNew Mexico,33.373,-104.5294
Monroe,Michigan,MonroeMichigan,41.9154,-83.385
Severn,Maryland,SevernMaryland,39.1355,-76.6958
Cumberland,Maryland,CumberlandMaryland,39.6515,-78.7585
St. Louis Park,Minnesota,St. Louis ParkMinnesota,44.9488,-93.3649
Reedley,California,ReedleyCalifornia,36.5983,-119.4473
Pascagoula,Mississippi,PascagoulaMississippi,30.3665,-88.5507
Madison,Alabama,MadisonAlabama,34.7114,-86.7626
East Lansing,Michigan,East LansingMichigan,42.748,-84.4835
Portage,Michigan,PortageMichigan,42.2,-85.5906
Kannapolis,North Carolina,KannapolisNorth Carolina,35.4764,-80.6403
Rancho Santa Margarita,California,Rancho Santa MargaritaCalifornia,33.6317,-117.5989
Cedar Hill,Texas,Cedar HillTexas,32.5809,-96.9592
Lawrence,Indiana,LawrenceIndiana,39.8674,-85.9904
Tuckahoe,Virginia,TuckahoeVirginia,37.5878,-77.5858
East Brunswick,New Jersey,East BrunswickNew Jersey,40.4281,-74.4179
Uniontown,Pennsylvania,UniontownPennsylvania,39.8994,-79.7244
Rio Grande City,Texas,Rio Grande CityTexas,26.3808,-98.8216
Paducah,Kentucky,PaducahKentucky,37.0711,-88.6435
Cookeville,Tennessee,CookevilleTennessee,36.1484,-85.5114
Findlay,Ohio,FindlayOhio,41.0467,-83.6379
Stillwater,Oklahoma,StillwaterOklahoma,36.1315,-97.074
Danville,Illinois,DanvilleIllinois,40.1423,-87.6114
Niagara Falls,New York,Niagara FallsNew York,43.0921,-79.0147
Enid,Oklahoma,EnidOklahoma,36.4061,-97.8701
Wauwatosa,Wisconsin,WauwatosaWisconsin,43.0615,-88.0347
San Jacinto,California,San JacintoCalifornia,33.797,-116.9915
Palm Springs,California,Palm SpringsCalifornia,33.8017,-116.5382
Morehead City,North Carolina,Morehead CityNorth Carolina,34.7304,-76.7386
Bel Air South,Maryland,Bel Air SouthMaryland,39.5051,-76.3197
East Honolulu,Hawaii,East HonoluluHawaii,21.2975,-157.7211
Littleton,Colorado,LittletonColorado,39.5915,-105.0188
Draper,Utah,DraperUtah,40.4956,-111.8607
Lincoln,California,LincolnCalifornia,38.8759,-121.2916
Glenview,Illinois,GlenviewIllinois,42.0825,-87.8216
Dublin,Ohio,DublinOhio,40.1112,-83.1453
West Orange,New Jersey,West OrangeNew Jersey,40.7893,-74.2627
East Providence,Rhode Island,East ProvidenceRhode Island,41.8065,-71.3565
Chesterfield,Missouri,ChesterfieldMissouri,38.6588,-90.5803
Newark,California,NewarkCalifornia,37.5204,-122.0312
Roseville,Michigan,RosevilleMichigan,42.5074,-82.9369
Jeffersonville,Indiana,JeffersonvilleIndiana,38.3375,-85.7026
McLean,Virginia,McLeanVirginia,38.9436,-77.1943
Keller,Texas,KellerTexas,32.9337,-97.2255
Sahuarita,Arizona,SahuaritaArizona,31.9328,-110.9654
Euclid,Ohio,EuclidOhio,41.5904,-81.5188
Sandusky,Ohio,SanduskyOhio,41.4437,-82.7149
Carrollton,Georgia,CarrolltonGeorgia,33.5818,-85.0837
Danville,Virginia,DanvilleVirginia,36.5831,-79.4088
Mentor,Ohio,MentorOhio,41.6895,-81.3361
Beaumont,California,BeaumontCalifornia,33.907,-116.9762
Beavercreek,Ohio,BeavercreekOhio,39.731,-84.0624
Pine Bluff,Arkansas,Pine BluffArkansas,34.2116,-92.0178
Salina,Kansas,SalinaKansas,38.8137,-97.6143
Maricopa,Arizona,MaricopaArizona,33.0404,-112.0006
New Philadelphia,Ohio,New PhiladelphiaOhio,40.486,-81.4402
Elmhurst,Illinois,ElmhurstIllinois,41.8973,-87.9432
Perinton,New York,PerintonNew York,43.0781,-77.4283
Galveston,Texas,GalvestonTexas,29.2487,-94.891
Little Elm,Texas,Little ElmTexas,33.1856,-96.929
Leavenworth,Kansas,LeavenworthKansas,39.3233,-94.9244
Middletown,Connecticut,MiddletownConnecticut,41.5476,-72.6549
Ocoee,Florida,OcoeeFlorida,28.5787,-81.5337
West Lafayette,Indiana,West LafayetteIndiana,40.4433,-86.9238
Pearl City,Hawaii,Pearl CityHawaii,21.4031,-157.9566
Burleson,Texas,BurlesonTexas,32.517,-97.3343
Lufkin,Texas,LufkinTexas,31.3217,-94.7277
Biloxi,Mississippi,BiloxiMississippi,30.4422,-88.9512
Potomac,Maryland,PotomacMaryland,39.0141,-77.1943
Hilo,Hawaii,HiloHawaii,19.6886,-155.0864
Oroville,California,OrovilleCalifornia,39.4999,-121.5634
South Brunswick,New Jersey,South BrunswickNew Jersey,40.384,-74.5256
Fort Pierce,Florida,Fort PierceFlorida,27.4256,-80.343
Bothell,Washington,BothellWashington,47.7736,-122.2044
Evesham,New Jersey,EveshamNew Jersey,39.8605,-74.8947
Coachella,California,CoachellaCalifornia,33.6905,-116.143
West Seneca,New York,West SenecaNew York,42.8374,-78.7509
Bridgewater,New Jersey,BridgewaterNew Jersey,40.5934,-74.6076
Sayreville,New Jersey,SayrevilleNew Jersey,40.4656,-74.3237
Marion,Ohio,MarionOhio,40.5933,-83.1236
Tupelo,Mississippi,TupeloMississippi,34.2691,-88.7318
El Dorado Hills,California,El Dorado HillsCalifornia,38.675,-121.049
Cutler Bay,Florida,Cutler BayFlorida,25.5765,-80.3356
Morgan Hill,California,Morgan HillCalifornia,37.1324,-121.641
Eureka,California,EurekaCalifornia,40.7941,-124.1568
Wallingford,Connecticut,WallingfordConnecticut,41.4587,-72.8039
Manitowoc,Wisconsin,ManitowocWisconsin,44.0991,-87.6811
Quincy,Illinois,QuincyIllinois,39.9335,-91.3798
Marana,Arizona,MaranaArizona,32.4355,-111.1558
Danville,California,DanvilleCalifornia,37.8121,-121.9698
Strongsville,Ohio,StrongsvilleOhio,41.3128,-81.8313
Farmington,Missouri,FarmingtonMissouri,37.7821,-90.4288
Mount Pleasant,New York,Mount PleasantNew York,41.112,-73.8122
Selma,California,SelmaCalifornia,36.5744,-119.6156
Enfield,Connecticut,EnfieldConnecticut,41.9839,-72.5548
Attleboro,Massachusetts,AttleboroMassachusetts,41.9311,-71.295
Lake Ridge,Virginia,Lake RidgeVirginia,38.6843,-77.3059
Del Rio,Texas,Del RioTexas,29.3708,-100.88
Haltom City,Texas,Haltom CityTexas,32.8176,-97.2707
Oro Valley,Arizona,Oro ValleyArizona,32.4223,-110.9767
Pinehurst,North Carolina,PinehurstNorth Carolina,35.1922,-79.4682
Altamonte Springs,Florida,Altamonte SpringsFlorida,28.6615,-81.3953
Kingman,Arizona,KingmanArizona,35.217,-114.0105
Rockwall,Texas,RockwallTexas,32.917,-96.4377
Lancaster,Ohio,LancasterOhio,39.7249,-82.6049
Bountiful,Utah,BountifulUtah,40.8722,-111.8647
Roseburg,Oregon,RoseburgOregon,43.2232,-123.3518
Plainfield,Illinois,PlainfieldIllinois,41.6205,-88.226
Adrian,Michigan,AdrianMichigan,41.8994,-84.0446
Southington,Connecticut,SouthingtonConnecticut,41.605,-72.8802
Monroe,New Jersey,MonroeNew Jersey,40.3191,-74.4286
Lombard,Illinois,LombardIllinois,41.8741,-88.0157
Desert Hot Springs,California,Desert Hot SpringsCalifornia,33.9551,-116.543
Egg Harbor,New Jersey,Egg HarborNew Jersey,39.3787,-74.6102
Henrietta,New York,HenriettaNew York,43.0555,-77.6413
Urbandale,Iowa,UrbandaleIowa,41.639,-93.7813
Winder,Georgia,WinderGeorgia,33.9917,-83.7218
Winter Garden,Florida,Winter GardenFlorida,28.5421,-81.5966
Stevens Point,Wisconsin,Stevens PointWisconsin,44.5241,-89.5508
Kyle,Texas,KyleTexas,29.9936,-97.8858
Manchester,New Jersey,ManchesterNew Jersey,39.9651,-74.3738
Riverton,Utah,RivertonUtah,40.5176,-111.9635
Peachtree Corners,Georgia,Peachtree CornersGeorgia,33.967,-84.2319
Moorhead,Minnesota,MoorheadMinnesota,46.8674,-96.746
Linden,New Jersey,LindenNew Jersey,40.6251,-74.2381
Hutchinson,Kansas,HutchinsonKansas,38.0671,-97.9081
Clovis,New Mexico,ClovisNew Mexico,34.4376,-103.1923
Ormond Beach,Florida,Ormond BeachFlorida,29.296,-81.1003
Cortlandt,New York,CortlandtNew York,41.2553,-73.9019
Billerica,Massachusetts,BillericaMassachusetts,42.5587,-71.2673
Brea,California,BreaCalifornia,33.9254,-117.8654
Prescott,Arizona,PrescottArizona,34.585,-112.4475
The Colony,Texas,The ColonyTexas,33.0927,-96.8977
Burke,Virginia,BurkeVirginia,38.7773,-77.2633
Kearny,New Jersey,KearnyNew Jersey,40.7528,-74.1202
Brentwood,Tennessee,BrentwoodTennessee,35.9918,-86.7758
Goose Creek,South Carolina,Goose CreekSouth Carolina,32.9922,-80.0052
North Brunswick,New Jersey,North BrunswickNew Jersey,40.4505,-74.4798
Fairfield,Ohio,FairfieldOhio,39.3301,-84.5405
Spring Hill,Tennessee,Spring HillTennessee,35.7438,-86.9116
Richmond,Indiana,RichmondIndiana,39.8318,-84.8904
Klamath Falls,Oregon,Klamath FallsOregon,42.2191,-121.7754
Rancho Palos Verdes,California,Rancho Palos VerdesCalifornia,33.7554,-118.3637
Weatherford,Texas,WeatherfordTexas,32.7535,-97.7724
Wake Forest,North Carolina,Wake ForestNorth Carolina,35.9634,-78.5139
Moline,Illinois,MolineIllinois,41.4821,-90.4919
Edmonds,Washington,EdmondsWashington,47.8114,-122.3533
Greenwood,South Carolina,GreenwoodSouth Carolina,34.1945,-82.1542
